name;score;description;category;label;_geom;lat;lng
vrNxCp4HF7ok26HEer501Q;27.67470406081218;"<a target=""_blank"" href=""https://www.mapillary.com/map/im/vrNxCp4HF7ok26HEer501Q""><img style=""width:200px"" src=""https://images.mapillary.com/vrNxCp4HF7ok26HEer501Q/thumb-320.jpg""></a><br>Streetwise Score: 27.67470406081218";2;0;47.4167867,9.3615663;47.4167867;9.3615663
YNhOcp0KtItW-yLCmQ696Q;34.88214747116874;"<a target=""_blank"" href=""https://www.mapillary.com/map/im/YNhOcp0KtItW-yLCmQ696Q""><img style=""width:200px"" src=""https://images.mapillary.com/YNhOcp0KtItW-yLCmQ696Q/thumb-320.jpg""></a><br>Streetwise Score: 34.88214747116874";3;+;47.4170094,9.362303;47.4170094;9.362303
SoaZtZLjG_lYqX-odnMPOg;37.31037283122634;"<a target=""_blank"" href=""https://www.mapillary.com/map/im/SoaZtZLjG_lYqX-odnMPOg""><img style=""width:200px"" src=""https://images.mapillary.com/SoaZtZLjG_lYqX-odnMPOg/thumb-320.jpg""></a><br>Streetwise Score: 37.31037283122634";3;+;47.4172577,9.3629452;47.4172577;9.3629452
dcXyK0KqwXJF9bxGPKBvvA;23.802059468404924;"<a target=""_blank"" href=""https://www.mapillary.com/map/im/dcXyK0KqwXJF9bxGPKBvvA""><img style=""width:200px"" src=""https://images.mapillary.com/dcXyK0KqwXJF9bxGPKBvvA/thumb-320.jpg""></a><br>Streetwise Score: 23.802059468404924";2;0;47.4175579,9.3635926;47.4175579;9.3635926
SVOY1zkOnsqHPvMyLjhRjw;38.01378951390883;"<a target=""_blank"" href=""https://www.mapillary.com/map/im/SVOY1zkOnsqHPvMyLjhRjw""><img style=""width:200px"" src=""https://images.mapillary.com/SVOY1zkOnsqHPvMyLjhRjw/thumb-320.jpg""></a><br>Streetwise Score: 38.01378951390883";3;+;47.4181699,9.3649449;47.4181699;9.3649449
1peOD-AOU5yHMS7R5VJYlA;34.55871103964578;"<a target=""_blank"" href=""https://www.mapillary.com/map/im/1peOD-AOU5yHMS7R5VJYlA""><img style=""width:200px"" src=""https://images.mapillary.com/1peOD-AOU5yHMS7R5VJYlA/thumb-320.jpg""></a><br>Streetwise Score: 34.55871103964578";3;+;47.4185653,9.3657503;47.4185653;9.3657503
U-3nd6u1Ratq89RDK3e9bQ;36.40926174008429;"<a target=""_blank"" href=""https://www.mapillary.com/map/im/U-3nd6u1Ratq89RDK3e9bQ""><img style=""width:200px"" src=""https://images.mapillary.com/U-3nd6u1Ratq89RDK3e9bQ/thumb-320.jpg""></a><br>Streetwise Score: 36.40926174008429";3;+;47.4188711,9.3659247;47.4188711;9.3659247
tXfG9GLVXIdGN2vqkui52w;34.234209975542875;"<a target=""_blank"" href=""https://www.mapillary.com/map/im/tXfG9GLVXIdGN2vqkui52w""><img style=""width:200px"" src=""https://images.mapillary.com/tXfG9GLVXIdGN2vqkui52w/thumb-320.jpg""></a><br>Streetwise Score: 34.234209975542875";3;+;47.4194021,9.3657063;47.4194021;9.3657063
1OmHy7qj4UW7_nqtbWdRsA;32.70960969630792;"<a target=""_blank"" href=""https://www.mapillary.com/map/im/1OmHy7qj4UW7_nqtbWdRsA""><img style=""width:200px"" src=""https://images.mapillary.com/1OmHy7qj4UW7_nqtbWdRsA/thumb-320.jpg""></a><br>Streetwise Score: 32.70960969630792";3;+;47.4200727,9.3656774;47.4200727;9.3656774
7e3R1luv81WLaNNvGn00kA;30.138535422091074;"<a target=""_blank"" href=""https://www.mapillary.com/map/im/7e3R1luv81WLaNNvGn00kA""><img style=""width:200px"" src=""https://images.mapillary.com/7e3R1luv81WLaNNvGn00kA/thumb-320.jpg""></a><br>Streetwise Score: 30.138535422091074";3;+;47.4202687,9.3659165;47.4202687;9.3659165
3TVIQ0UTZxCK0KcPEx7iiQ;39.06619860403664;"<a target=""_blank"" href=""https://www.mapillary.com/map/im/3TVIQ0UTZxCK0KcPEx7iiQ""><img style=""width:200px"" src=""https://images.mapillary.com/3TVIQ0UTZxCK0KcPEx7iiQ/thumb-320.jpg""></a><br>Streetwise Score: 39.06619860403664";0;wahrgenommene Sicherheit tief;47.4211925,9.3671291;47.4211925;9.3671291
NvW1ClQ3LRnU3ML0WHlkmA;28.65877463678126;"<a target=""_blank"" href=""https://www.mapillary.com/map/im/NvW1ClQ3LRnU3ML0WHlkmA""><img style=""width:200px"" src=""https://images.mapillary.com/NvW1ClQ3LRnU3ML0WHlkmA/thumb-320.jpg""></a><br>Streetwise Score: 28.65877463678126";2;0;47.4200122,9.3658238;47.4200122;9.3658238
uUamp0BKIUMAjMEsbpiqmQ;39.4542424138347;"<a target=""_blank"" href=""https://www.mapillary.com/map/im/uUamp0BKIUMAjMEsbpiqmQ""><img style=""width:200px"" src=""https://images.mapillary.com/uUamp0BKIUMAjMEsbpiqmQ/thumb-320.jpg""></a><br>Streetwise Score: 39.4542424138347";0;wahrgenommene Sicherheit tief;47.4198481,9.3655896;47.4198481;9.3655896
lpgarXiEGe0V-QH5p_3gJQ;39.34138712667119;"<a target=""_blank"" href=""https://www.mapillary.com/map/im/lpgarXiEGe0V-QH5p_3gJQ""><img style=""width:200px"" src=""https://images.mapillary.com/lpgarXiEGe0V-QH5p_3gJQ/thumb-320.jpg""></a><br>Streetwise Score: 39.34138712667119";0;wahrgenommene Sicherheit tief;47.4222903,9.3692436;47.4222903;9.3692436
MbpsqkrKp1ljvVi4Nb1feQ;26.708782183427793;"<a target=""_blank"" href=""https://www.mapillary.com/map/im/MbpsqkrKp1ljvVi4Nb1feQ""><img style=""width:200px"" src=""https://images.mapillary.com/MbpsqkrKp1ljvVi4Nb1feQ/thumb-320.jpg""></a><br>Streetwise Score: 26.708782183427793";2;0;47.4347911,9.3927839;47.4347911;9.3927839
b6FCgpnwCWFWdP469E8ikA;34.93690870311173;"<a target=""_blank"" href=""https://www.mapillary.com/map/im/b6FCgpnwCWFWdP469E8ikA""><img style=""width:200px"" src=""https://images.mapillary.com/b6FCgpnwCWFWdP469E8ikA/thumb-320.jpg""></a><br>Streetwise Score: 34.93690870311173";3;+;47.4258539,9.3802427;47.4258539;9.3802427
ix8TFNFLnTmWmVFgUD5vtQ;35.413059349155176;"<a target=""_blank"" href=""https://www.mapillary.com/map/im/ix8TFNFLnTmWmVFgUD5vtQ""><img style=""width:200px"" src=""https://images.mapillary.com/ix8TFNFLnTmWmVFgUD5vtQ/thumb-320.jpg""></a><br>Streetwise Score: 35.413059349155176";3;+;47.4256742,9.3800834;47.4256742;9.3800834
MSyjEL4jAx2ZXMpqQ91Eqg;43.53548065651843;"<a target=""_blank"" href=""https://www.mapillary.com/map/im/MSyjEL4jAx2ZXMpqQ91Eqg""><img style=""width:200px"" src=""https://images.mapillary.com/MSyjEL4jAx2ZXMpqQ91Eqg/thumb-320.jpg""></a><br>Streetwise Score: 43.53548065651843";4;wahrgenommene Sicherheit hoch;47.4255395,9.3798461;47.4255395;9.3798461
WbutjICLnngoyn6TEGuevA;32.680614112344486;"<a target=""_blank"" href=""https://www.mapillary.com/map/im/WbutjICLnngoyn6TEGuevA""><img style=""width:200px"" src=""https://images.mapillary.com/WbutjICLnngoyn6TEGuevA/thumb-320.jpg""></a><br>Streetwise Score: 32.680614112344486";3;+;47.4253651,9.3796349;47.4253651;9.3796349
zuYmF_oTc88vPa3ZUXFWVA;37.897174908689855;"<a target=""_blank"" href=""https://www.mapillary.com/map/im/zuYmF_oTc88vPa3ZUXFWVA""><img style=""width:200px"" src=""https://images.mapillary.com/zuYmF_oTc88vPa3ZUXFWVA/thumb-320.jpg""></a><br>Streetwise Score: 37.897174908689855";3;+;47.4254139,9.3783288;47.4254139;9.3783288
CLa_lbZZnI77IL4dKLIP8Q;36.9911823791133;"<a target=""_blank"" href=""https://www.mapillary.com/map/im/CLa_lbZZnI77IL4dKLIP8Q""><img style=""width:200px"" src=""https://images.mapillary.com/CLa_lbZZnI77IL4dKLIP8Q/thumb-320.jpg""></a><br>Streetwise Score: 36.9911823791133";3;+;47.425761,9.3774609;47.425761;9.3774609
jXmqeogMHRBGPy3pgAjfwQ;26.771661787156205;"<a target=""_blank"" href=""https://www.mapillary.com/map/im/jXmqeogMHRBGPy3pgAjfwQ""><img style=""width:200px"" src=""https://images.mapillary.com/jXmqeogMHRBGPy3pgAjfwQ/thumb-320.jpg""></a><br>Streetwise Score: 26.771661787156205";2;0;47.4227111,9.3684111;47.4227111;9.3684111
O6fGP3L1k9oXWDFDGpaTDA;20.607666582796288;"<a target=""_blank"" href=""https://www.mapillary.com/map/im/O6fGP3L1k9oXWDFDGpaTDA""><img style=""width:200px"" src=""https://images.mapillary.com/O6fGP3L1k9oXWDFDGpaTDA/thumb-320.jpg""></a><br>Streetwise Score: 20.607666582796288";2;0;47.4227194,9.3684194;47.4227194;9.3684194
Tnivu6SSbkC2zPHp2cyVHQ;27.14533694411498;"<a target=""_blank"" href=""https://www.mapillary.com/map/im/Tnivu6SSbkC2zPHp2cyVHQ""><img style=""width:200px"" src=""https://images.mapillary.com/Tnivu6SSbkC2zPHp2cyVHQ/thumb-320.jpg""></a><br>Streetwise Score: 27.14533694411498";2;0;47.4286589,9.3608546;47.4286589;9.3608546
c9JPSSRnRuhOIOhulbwQiA;26.73158857426138;"<a target=""_blank"" href=""https://www.mapillary.com/map/im/c9JPSSRnRuhOIOhulbwQiA""><img style=""width:200px"" src=""https://images.mapillary.com/c9JPSSRnRuhOIOhulbwQiA/thumb-320.jpg""></a><br>Streetwise Score: 26.73158857426138";2;0;47.4277713,9.3590872;47.4277713;9.3590872
qktxBsNz7dtIVeDPme1nvQ;28.251166161505665;"<a target=""_blank"" href=""https://www.mapillary.com/map/im/qktxBsNz7dtIVeDPme1nvQ""><img style=""width:200px"" src=""https://images.mapillary.com/qktxBsNz7dtIVeDPme1nvQ/thumb-320.jpg""></a><br>Streetwise Score: 28.251166161505665";2;0;47.4266334,9.3566558;47.4266334;9.3566558
c2aQC_SZWF8pJL5ApwE_HA;20.086198429882636;"<a target=""_blank"" href=""https://www.mapillary.com/map/im/c2aQC_SZWF8pJL5ApwE_HA""><img style=""width:200px"" src=""https://images.mapillary.com/c2aQC_SZWF8pJL5ApwE_HA/thumb-320.jpg""></a><br>Streetwise Score: 20.086198429882636";2;0;47.4259081,9.3547404;47.4259081;9.3547404
A6I4Z3y9a74hFKXJ5Aebzw;25.643861790753743;"<a target=""_blank"" href=""https://www.mapillary.com/map/im/A6I4Z3y9a74hFKXJ5Aebzw""><img style=""width:200px"" src=""https://images.mapillary.com/A6I4Z3y9a74hFKXJ5Aebzw/thumb-320.jpg""></a><br>Streetwise Score: 25.643861790753743";2;0;47.4254965,9.3533493;47.4254965;9.3533493
-DsCaETUl2aP8AmJ-qfTfw;23.489471117012656;"<a target=""_blank"" href=""https://www.mapillary.com/map/im/-DsCaETUl2aP8AmJ-qfTfw""><img style=""width:200px"" src=""https://images.mapillary.com/-DsCaETUl2aP8AmJ-qfTfw/thumb-320.jpg""></a><br>Streetwise Score: 23.489471117012656";2;0;47.4240513,9.3479407;47.4240513;9.3479407
p6XC1Y3Fgkj6vT4rtldd2g;25.331580492598643;"<a target=""_blank"" href=""https://www.mapillary.com/map/im/p6XC1Y3Fgkj6vT4rtldd2g""><img style=""width:200px"" src=""https://images.mapillary.com/p6XC1Y3Fgkj6vT4rtldd2g/thumb-320.jpg""></a><br>Streetwise Score: 25.331580492598643";2;0;47.4237925,9.3472785;47.4237925;9.3472785
cIYnscn1U6xs5PzBOt2ojQ;28.291506020657945;"<a target=""_blank"" href=""https://www.mapillary.com/map/im/cIYnscn1U6xs5PzBOt2ojQ""><img style=""width:200px"" src=""https://images.mapillary.com/cIYnscn1U6xs5PzBOt2ojQ/thumb-320.jpg""></a><br>Streetwise Score: 28.291506020657945";2;0;47.42352,9.3466136;47.42352;9.3466136
tn64G8QAE0uoLolYCYmK-g;24.615656693223354;"<a target=""_blank"" href=""https://www.mapillary.com/map/im/tn64G8QAE0uoLolYCYmK-g""><img style=""width:200px"" src=""https://images.mapillary.com/tn64G8QAE0uoLolYCYmK-g/thumb-320.jpg""></a><br>Streetwise Score: 24.615656693223354";2;0;47.4212936,9.3385632;47.4212936;9.3385632
o1eY1lKeL81gxCzr9K0m2w;21.761305110547045;"<a target=""_blank"" href=""https://www.mapillary.com/map/im/o1eY1lKeL81gxCzr9K0m2w""><img style=""width:200px"" src=""https://images.mapillary.com/o1eY1lKeL81gxCzr9K0m2w/thumb-320.jpg""></a><br>Streetwise Score: 21.761305110547045";2;0;47.419848,9.3322809;47.419848;9.3322809
ZVmyBP61i_X24rl0FPxZcg;16.73404307567552;"<a target=""_blank"" href=""https://www.mapillary.com/map/im/ZVmyBP61i_X24rl0FPxZcg""><img style=""width:200px"" src=""https://images.mapillary.com/ZVmyBP61i_X24rl0FPxZcg/thumb-320.jpg""></a><br>Streetwise Score: 16.73404307567552";1;-;47.4196015,9.3316185;47.4196015;9.3316185
IVe60-n0q-N-x5U7PrNYzw;23.216721972400965;"<a target=""_blank"" href=""https://www.mapillary.com/map/im/IVe60-n0q-N-x5U7PrNYzw""><img style=""width:200px"" src=""https://images.mapillary.com/IVe60-n0q-N-x5U7PrNYzw/thumb-320.jpg""></a><br>Streetwise Score: 23.216721972400965";2;0;47.4193988,9.3310457;47.4193988;9.3310457
BeYFbxAlu7ZHLWQfsBruRw;24.729931154699063;"<a target=""_blank"" href=""https://www.mapillary.com/map/im/BeYFbxAlu7ZHLWQfsBruRw""><img style=""width:200px"" src=""https://images.mapillary.com/BeYFbxAlu7ZHLWQfsBruRw/thumb-320.jpg""></a><br>Streetwise Score: 24.729931154699063";2;0;47.4359974,9.3979431;47.4359974;9.3979431
yHdargmXjn47LvHJWx3TQQ;19.744631803258866;"<a target=""_blank"" href=""https://www.mapillary.com/map/im/yHdargmXjn47LvHJWx3TQQ""><img style=""width:200px"" src=""https://images.mapillary.com/yHdargmXjn47LvHJWx3TQQ/thumb-320.jpg""></a><br>Streetwise Score: 19.744631803258866";2;0;47.4358113,9.3974261;47.4358113;9.3974261
jgXPJixA12oe8OpFVcKtZQ;26.798168412604035;"<a target=""_blank"" href=""https://www.mapillary.com/map/im/jgXPJixA12oe8OpFVcKtZQ""><img style=""width:200px"" src=""https://images.mapillary.com/jgXPJixA12oe8OpFVcKtZQ/thumb-320.jpg""></a><br>Streetwise Score: 26.798168412604035";2;0;47.4348118,9.3947397;47.4348118;9.3947397
JvrLmeBb_TSO2XZRcxBaKA;23.168413450269338;"<a target=""_blank"" href=""https://www.mapillary.com/map/im/JvrLmeBb_TSO2XZRcxBaKA""><img style=""width:200px"" src=""https://images.mapillary.com/JvrLmeBb_TSO2XZRcxBaKA/thumb-320.jpg""></a><br>Streetwise Score: 23.168413450269338";2;0;47.43419,9.3930646;47.43419;9.3930646
Xd5KY43SHmScv3IZcWoCnQ;20.495997302892324;"<a target=""_blank"" href=""https://www.mapillary.com/map/im/Xd5KY43SHmScv3IZcWoCnQ""><img style=""width:200px"" src=""https://images.mapillary.com/Xd5KY43SHmScv3IZcWoCnQ/thumb-320.jpg""></a><br>Streetwise Score: 20.495997302892324";2;0;47.4338928,9.3918726;47.4338928;9.3918726
Y4ZDaHyeOauz0yX0_7n6Ng;25.850143317274835;"<a target=""_blank"" href=""https://www.mapillary.com/map/im/Y4ZDaHyeOauz0yX0_7n6Ng""><img style=""width:200px"" src=""https://images.mapillary.com/Y4ZDaHyeOauz0yX0_7n6Ng/thumb-320.jpg""></a><br>Streetwise Score: 25.850143317274835";2;0;47.4334149,9.3888832;47.4334149;9.3888832
mBXbkKK5XzQRuiNdIkjnZQ;19.562194649169545;"<a target=""_blank"" href=""https://www.mapillary.com/map/im/mBXbkKK5XzQRuiNdIkjnZQ""><img style=""width:200px"" src=""https://images.mapillary.com/mBXbkKK5XzQRuiNdIkjnZQ/thumb-320.jpg""></a><br>Streetwise Score: 19.562194649169545";2;0;47.4333316,9.3882804;47.4333316;9.3882804
iGfLBX_okm5VnXGhI9ejhA;24.38401434504061;"<a target=""_blank"" href=""https://www.mapillary.com/map/im/iGfLBX_okm5VnXGhI9ejhA""><img style=""width:200px"" src=""https://images.mapillary.com/iGfLBX_okm5VnXGhI9ejhA/thumb-320.jpg""></a><br>Streetwise Score: 24.38401434504061";2;0;47.4332371,9.3870778;47.4332371;9.3870778
5FplGuVSMCNhycnbKNNMmQ;29.827106810007223;"<a target=""_blank"" href=""https://www.mapillary.com/map/im/5FplGuVSMCNhycnbKNNMmQ""><img style=""width:200px"" src=""https://images.mapillary.com/5FplGuVSMCNhycnbKNNMmQ/thumb-320.jpg""></a><br>Streetwise Score: 29.827106810007223";3;+;47.432766,9.3840284;47.432766;9.3840284
07hquweZGU9iSbykq0PexQ;25.231954675111258;"<a target=""_blank"" href=""https://www.mapillary.com/map/im/07hquweZGU9iSbykq0PexQ""><img style=""width:200px"" src=""https://images.mapillary.com/07hquweZGU9iSbykq0PexQ/thumb-320.jpg""></a><br>Streetwise Score: 25.231954675111258";2;0;47.4591906,9.434832;47.4591906;9.434832
u4ZMLy3av9K4lKQLOFx1UQ;17.11011877611449;"<a target=""_blank"" href=""https://www.mapillary.com/map/im/u4ZMLy3av9K4lKQLOFx1UQ""><img style=""width:200px"" src=""https://images.mapillary.com/u4ZMLy3av9K4lKQLOFx1UQ/thumb-320.jpg""></a><br>Streetwise Score: 17.11011877611449";1;-;47.4561176,9.4310061;47.4561176;9.4310061
-haMBhz3wWwStXLgJ6AifA;15.079396181758275;"<a target=""_blank"" href=""https://www.mapillary.com/map/im/-haMBhz3wWwStXLgJ6AifA""><img style=""width:200px"" src=""https://images.mapillary.com/-haMBhz3wWwStXLgJ6AifA/thumb-320.jpg""></a><br>Streetwise Score: 15.079396181758275";1;-;47.4557689,9.4304549;47.4557689;9.4304549
gO-dG6OSk838_VfBmzJolA;17.93798489235866;"<a target=""_blank"" href=""https://www.mapillary.com/map/im/gO-dG6OSk838_VfBmzJolA""><img style=""width:200px"" src=""https://images.mapillary.com/gO-dG6OSk838_VfBmzJolA/thumb-320.jpg""></a><br>Streetwise Score: 17.93798489235866";1;-;47.4529328,9.4259489;47.4529328;9.4259489
yP1z_sTruS5L5lPq857UVA;26.2668145906405;"<a target=""_blank"" href=""https://www.mapillary.com/map/im/yP1z_sTruS5L5lPq857UVA""><img style=""width:200px"" src=""https://images.mapillary.com/yP1z_sTruS5L5lPq857UVA/thumb-320.jpg""></a><br>Streetwise Score: 26.2668145906405";2;0;47.4503028,9.4225937;47.4503028;9.4225937
Qsx6oZj8gIZwZh_3QvXpdA;19.174538400593455;"<a target=""_blank"" href=""https://www.mapillary.com/map/im/Qsx6oZj8gIZwZh_3QvXpdA""><img style=""width:200px"" src=""https://images.mapillary.com/Qsx6oZj8gIZwZh_3QvXpdA/thumb-320.jpg""></a><br>Streetwise Score: 19.174538400593455";2;0;47.4499224,9.4221841;47.4499224;9.4221841
6zdpek7xkQvsM4DA3lSFHA;34.09249355726099;"<a target=""_blank"" href=""https://www.mapillary.com/map/im/6zdpek7xkQvsM4DA3lSFHA""><img style=""width:200px"" src=""https://images.mapillary.com/6zdpek7xkQvsM4DA3lSFHA/thumb-320.jpg""></a><br>Streetwise Score: 34.09249355726099";3;+;47.4483734,9.4208343;47.4483734;9.4208343
dxz3mHSVjsfO19p5bhJY0A;12.932215358352998;"<a target=""_blank"" href=""https://www.mapillary.com/map/im/dxz3mHSVjsfO19p5bhJY0A""><img style=""width:200px"" src=""https://images.mapillary.com/dxz3mHSVjsfO19p5bhJY0A/thumb-320.jpg""></a><br>Streetwise Score: 12.932215358352998";1;-;47.4459383,9.4192785;47.4459383;9.4192785
11QKVhDv-z7aaAdmEboSgg;20.715465840676778;"<a target=""_blank"" href=""https://www.mapillary.com/map/im/11QKVhDv-z7aaAdmEboSgg""><img style=""width:200px"" src=""https://images.mapillary.com/11QKVhDv-z7aaAdmEboSgg/thumb-320.jpg""></a><br>Streetwise Score: 20.715465840676778";2;0;47.4435921,9.4180223;47.4435921;9.4180223
Gi8q5SW6c47vXn5sywSzjw;21.57769195260589;"<a target=""_blank"" href=""https://www.mapillary.com/map/im/Gi8q5SW6c47vXn5sywSzjw""><img style=""width:200px"" src=""https://images.mapillary.com/Gi8q5SW6c47vXn5sywSzjw/thumb-320.jpg""></a><br>Streetwise Score: 21.57769195260589";2;0;47.4400557,9.4153132;47.4400557;9.4153132
sQn2-9y2LHn5bO6AdMEFaQ;26.638436806297186;"<a target=""_blank"" href=""https://www.mapillary.com/map/im/sQn2-9y2LHn5bO6AdMEFaQ""><img style=""width:200px"" src=""https://images.mapillary.com/sQn2-9y2LHn5bO6AdMEFaQ/thumb-320.jpg""></a><br>Streetwise Score: 26.638436806297186";2;0;47.4398063,9.4148609;47.4398063;9.4148609
zWmMq_VMxf2vldBjb0xSPw;26.217252373099406;"<a target=""_blank"" href=""https://www.mapillary.com/map/im/zWmMq_VMxf2vldBjb0xSPw""><img style=""width:200px"" src=""https://images.mapillary.com/zWmMq_VMxf2vldBjb0xSPw/thumb-320.jpg""></a><br>Streetwise Score: 26.217252373099406";2;0;47.4392438,9.4133212;47.4392438;9.4133212
XBxSo00DiaPDvAMc5aFCxA;26.00611813269546;"<a target=""_blank"" href=""https://www.mapillary.com/map/im/XBxSo00DiaPDvAMc5aFCxA""><img style=""width:200px"" src=""https://images.mapillary.com/XBxSo00DiaPDvAMc5aFCxA/thumb-320.jpg""></a><br>Streetwise Score: 26.00611813269546";2;0;47.4389345,9.4114783;47.4389345;9.4114783
p0FDctdyFlDSay6RTToHBw;21.69382330998774;"<a target=""_blank"" href=""https://www.mapillary.com/map/im/p0FDctdyFlDSay6RTToHBw""><img style=""width:200px"" src=""https://images.mapillary.com/p0FDctdyFlDSay6RTToHBw/thumb-320.jpg""></a><br>Streetwise Score: 21.69382330998774";2;0;47.4353036,9.3959778;47.4353036;9.3959778
msJDBFj7OoBE5Vbtzr6h8A;13.168378111205687;"<a target=""_blank"" href=""https://www.mapillary.com/map/im/msJDBFj7OoBE5Vbtzr6h8A""><img style=""width:200px"" src=""https://images.mapillary.com/msJDBFj7OoBE5Vbtzr6h8A/thumb-320.jpg""></a><br>Streetwise Score: 13.168378111205687";1;-;47.4344657,9.3940226;47.4344657;9.3940226
cIwqzANOQ5BY7HeGuTNd2w;27.334042313021587;"<a target=""_blank"" href=""https://www.mapillary.com/map/im/cIwqzANOQ5BY7HeGuTNd2w""><img style=""width:200px"" src=""https://images.mapillary.com/cIwqzANOQ5BY7HeGuTNd2w/thumb-320.jpg""></a><br>Streetwise Score: 27.334042313021587";2;0;47.4339739,9.3923798;47.4339739;9.3923798
E7V2Kc1bCSF41v_Wj2-5_g;32.13847980703714;"<a target=""_blank"" href=""https://www.mapillary.com/map/im/E7V2Kc1bCSF41v_Wj2-5_g""><img style=""width:200px"" src=""https://images.mapillary.com/E7V2Kc1bCSF41v_Wj2-5_g/thumb-320.jpg""></a><br>Streetwise Score: 32.13847980703714";3;+;47.4332224,9.3864738;47.4332224;9.3864738
aoQxhb1SXc0aLUeE2ej-2Q;12.097413264964729;"<a target=""_blank"" href=""https://www.mapillary.com/map/im/aoQxhb1SXc0aLUeE2ej-2Q""><img style=""width:200px"" src=""https://images.mapillary.com/aoQxhb1SXc0aLUeE2ej-2Q/thumb-320.jpg""></a><br>Streetwise Score: 12.097413264964729";1;-;47.4319425,9.3766468;47.4319425;9.3766468
S7uSGl3UMnFMg023mjhQoQ;10.71755426097177;"<a target=""_blank"" href=""https://www.mapillary.com/map/im/S7uSGl3UMnFMg023mjhQoQ""><img style=""width:200px"" src=""https://images.mapillary.com/S7uSGl3UMnFMg023mjhQoQ/thumb-320.jpg""></a><br>Streetwise Score: 10.71755426097177";1;-;47.4318116,9.3754626;47.4318116;9.3754626
lNm2GqP5qFTe1D5iJVWZIA;14.252797066420317;"<a target=""_blank"" href=""https://www.mapillary.com/map/im/lNm2GqP5qFTe1D5iJVWZIA""><img style=""width:200px"" src=""https://images.mapillary.com/lNm2GqP5qFTe1D5iJVWZIA/thumb-320.jpg""></a><br>Streetwise Score: 14.252797066420317";1;-;47.4308531,9.366792;47.4308531;9.366792
IMLH5FCG4CRnJe8_gejHYQ;2.602627558920083;"<a target=""_blank"" href=""https://www.mapillary.com/map/im/IMLH5FCG4CRnJe8_gejHYQ""><img style=""width:200px"" src=""https://images.mapillary.com/IMLH5FCG4CRnJe8_gejHYQ/thumb-320.jpg""></a><br>Streetwise Score: 2.602627558920083";0;wahrgenommene Sicherheit tief;47.4231344,9.3686158;47.4231344;9.3686158
PkZwOBRxPEbOI4_WwSLMGw;25.9349415927192;"<a target=""_blank"" href=""https://www.mapillary.com/map/im/PkZwOBRxPEbOI4_WwSLMGw""><img style=""width:200px"" src=""https://images.mapillary.com/PkZwOBRxPEbOI4_WwSLMGw/thumb-320.jpg""></a><br>Streetwise Score: 25.9349415927192";2;0;47.4234054,9.3702865;47.4234054;9.3702865
_-ZaAduJ4wMGL_HA475fsA;45.50354689298672;"<a target=""_blank"" href=""https://www.mapillary.com/map/im/_-ZaAduJ4wMGL_HA475fsA""><img style=""width:200px"" src=""https://images.mapillary.com/_-ZaAduJ4wMGL_HA475fsA/thumb-320.jpg""></a><br>Streetwise Score: 45.50354689298672";4;wahrgenommene Sicherheit hoch;47.4316628,9.3816109;47.4316628;9.3816109
Pg0S0vrgukCERSeNX4kDfA;42.60237639920803;"<a target=""_blank"" href=""https://www.mapillary.com/map/im/Pg0S0vrgukCERSeNX4kDfA""><img style=""width:200px"" src=""https://images.mapillary.com/Pg0S0vrgukCERSeNX4kDfA/thumb-320.jpg""></a><br>Streetwise Score: 42.60237639920803";4;wahrgenommene Sicherheit hoch;47.4270182,9.3815867;47.4270182;9.3815867
voPYX44ufSCwYnENXfUNFw;44.128339582267756;"<a target=""_blank"" href=""https://www.mapillary.com/map/im/voPYX44ufSCwYnENXfUNFw""><img style=""width:200px"" src=""https://images.mapillary.com/voPYX44ufSCwYnENXfUNFw/thumb-320.jpg""></a><br>Streetwise Score: 44.128339582267756";4;wahrgenommene Sicherheit hoch;47.4270819,9.3817846;47.4270819;9.3817846
7asUiQHEj300Wq7jd_hJpg;48.48219849428812;"<a target=""_blank"" href=""https://www.mapillary.com/map/im/7asUiQHEj300Wq7jd_hJpg""><img style=""width:200px"" src=""https://images.mapillary.com/7asUiQHEj300Wq7jd_hJpg/thumb-320.jpg""></a><br>Streetwise Score: 48.48219849428812";4;wahrgenommene Sicherheit hoch;47.4270802,9.3818021;47.4270802;9.3818021
SoyFtYq3A9qOthbs6ywn_w;46.74270382084397;"<a target=""_blank"" href=""https://www.mapillary.com/map/im/SoyFtYq3A9qOthbs6ywn_w""><img style=""width:200px"" src=""https://images.mapillary.com/SoyFtYq3A9qOthbs6ywn_w/thumb-320.jpg""></a><br>Streetwise Score: 46.74270382084397";4;wahrgenommene Sicherheit hoch;47.4272488,9.3819352;47.4272488;9.3819352
yECVWGG6WDq1cdCVPy19bQ;46.530062937799;"<a target=""_blank"" href=""https://www.mapillary.com/map/im/yECVWGG6WDq1cdCVPy19bQ""><img style=""width:200px"" src=""https://images.mapillary.com/yECVWGG6WDq1cdCVPy19bQ/thumb-320.jpg""></a><br>Streetwise Score: 46.530062937799";4;wahrgenommene Sicherheit hoch;47.4273129,9.3819495;47.4273129;9.3819495
yG3mXULGjHp-ZlyU86UA1A;45.52639573216605;"<a target=""_blank"" href=""https://www.mapillary.com/map/im/yG3mXULGjHp-ZlyU86UA1A""><img style=""width:200px"" src=""https://images.mapillary.com/yG3mXULGjHp-ZlyU86UA1A/thumb-320.jpg""></a><br>Streetwise Score: 45.52639573216605";4;wahrgenommene Sicherheit hoch;47.4276706,9.3822435;47.4276706;9.3822435
8Fpob6tXyzedPnfW7XZS0Q;46.931118137709966;"<a target=""_blank"" href=""https://www.mapillary.com/map/im/8Fpob6tXyzedPnfW7XZS0Q""><img style=""width:200px"" src=""https://images.mapillary.com/8Fpob6tXyzedPnfW7XZS0Q/thumb-320.jpg""></a><br>Streetwise Score: 46.931118137709966";4;wahrgenommene Sicherheit hoch;47.4269128,9.3815501;47.4269128;9.3815501
u8NOv3DjQ5aSODKI5ocGvg;44.13962704470315;"<a target=""_blank"" href=""https://www.mapillary.com/map/im/u8NOv3DjQ5aSODKI5ocGvg""><img style=""width:200px"" src=""https://images.mapillary.com/u8NOv3DjQ5aSODKI5ocGvg/thumb-320.jpg""></a><br>Streetwise Score: 44.13962704470315";4;wahrgenommene Sicherheit hoch;47.4252555,9.3817393;47.4252555;9.3817393
vuI_61qFaX5f4RiodhOmvA;38.066448585749804;"<a target=""_blank"" href=""https://www.mapillary.com/map/im/vuI_61qFaX5f4RiodhOmvA""><img style=""width:200px"" src=""https://images.mapillary.com/vuI_61qFaX5f4RiodhOmvA/thumb-320.jpg""></a><br>Streetwise Score: 38.066448585749804";3;+;47.4268179,9.3860223;47.4268179;9.3860223
uDDD-OtDR7SG53FthT6UIQ;42.071157817686945;"<a target=""_blank"" href=""https://www.mapillary.com/map/im/uDDD-OtDR7SG53FthT6UIQ""><img style=""width:200px"" src=""https://images.mapillary.com/uDDD-OtDR7SG53FthT6UIQ/thumb-320.jpg""></a><br>Streetwise Score: 42.071157817686945";4;wahrgenommene Sicherheit hoch;47.4269957,9.3855941;47.4269957;9.3855941
GHprp-kiH1U33BfLKc5P8g;43.10217791816024;"<a target=""_blank"" href=""https://www.mapillary.com/map/im/GHprp-kiH1U33BfLKc5P8g""><img style=""width:200px"" src=""https://images.mapillary.com/GHprp-kiH1U33BfLKc5P8g/thumb-320.jpg""></a><br>Streetwise Score: 43.10217791816024";4;wahrgenommene Sicherheit hoch;47.4270956,9.3852537;47.4270956;9.3852537
GjdXO6Kv4LKrH-BDqBSbgg;38.6040579053119;"<a target=""_blank"" href=""https://www.mapillary.com/map/im/GjdXO6Kv4LKrH-BDqBSbgg""><img style=""width:200px"" src=""https://images.mapillary.com/GjdXO6Kv4LKrH-BDqBSbgg/thumb-320.jpg""></a><br>Streetwise Score: 38.6040579053119";3;+;47.4271593,9.3850404;47.4271593;9.3850404
luH3u5NI_DeUshc8zoyf5g;37.46284272770126;"<a target=""_blank"" href=""https://www.mapillary.com/map/im/luH3u5NI_DeUshc8zoyf5g""><img style=""width:200px"" src=""https://images.mapillary.com/luH3u5NI_DeUshc8zoyf5g/thumb-320.jpg""></a><br>Streetwise Score: 37.46284272770126";3;+;47.4270854,9.3849318;47.4270854;9.3849318
jTews3ZFmCdR_d_vATWgkQ;38.06607419644143;"<a target=""_blank"" href=""https://www.mapillary.com/map/im/jTews3ZFmCdR_d_vATWgkQ""><img style=""width:200px"" src=""https://images.mapillary.com/jTews3ZFmCdR_d_vATWgkQ/thumb-320.jpg""></a><br>Streetwise Score: 38.06607419644143";3;+;47.4265014,9.3831574;47.4265014;9.3831574
BHx50Da1IS9OUGuZ5YgpZA;37.44923306279409;"<a target=""_blank"" href=""https://www.mapillary.com/map/im/BHx50Da1IS9OUGuZ5YgpZA""><img style=""width:200px"" src=""https://images.mapillary.com/BHx50Da1IS9OUGuZ5YgpZA/thumb-320.jpg""></a><br>Streetwise Score: 37.44923306279409";3;+;47.4265357,9.3830627;47.4265357;9.3830627
cELZhJouTgXD2RsFRwNGjg;35.38979006747431;"<a target=""_blank"" href=""https://www.mapillary.com/map/im/cELZhJouTgXD2RsFRwNGjg""><img style=""width:200px"" src=""https://images.mapillary.com/cELZhJouTgXD2RsFRwNGjg/thumb-320.jpg""></a><br>Streetwise Score: 35.38979006747431";3;+;47.4265702,9.3829488;47.4265702;9.3829488
-6CQAm1dv-HcirTde4_Tmg;23.045863817908238;"<a target=""_blank"" href=""https://www.mapillary.com/map/im/-6CQAm1dv-HcirTde4_Tmg""><img style=""width:200px"" src=""https://images.mapillary.com/-6CQAm1dv-HcirTde4_Tmg/thumb-320.jpg""></a><br>Streetwise Score: 23.045863817908238";2;0;47.4266236,9.382818;47.4266236;9.382818
Zg-7OvjC5OOlfBQIpkEbqQ;30.791591406779695;"<a target=""_blank"" href=""https://www.mapillary.com/map/im/Zg-7OvjC5OOlfBQIpkEbqQ""><img style=""width:200px"" src=""https://images.mapillary.com/Zg-7OvjC5OOlfBQIpkEbqQ/thumb-320.jpg""></a><br>Streetwise Score: 30.791591406779695";3;+;47.4265468,9.3827495;47.4265468;9.3827495
YlgBPQPkOTWibxOUD8BRQQ;35.632286746852536;"<a target=""_blank"" href=""https://www.mapillary.com/map/im/YlgBPQPkOTWibxOUD8BRQQ""><img style=""width:200px"" src=""https://images.mapillary.com/YlgBPQPkOTWibxOUD8BRQQ/thumb-320.jpg""></a><br>Streetwise Score: 35.632286746852536";3;+;47.4260589,9.3822683;47.4260589;9.3822683
bbl_a6OwBMF6Z_b-kMBBnA;28.62849175876901;"<a target=""_blank"" href=""https://www.mapillary.com/map/im/bbl_a6OwBMF6Z_b-kMBBnA""><img style=""width:200px"" src=""https://images.mapillary.com/bbl_a6OwBMF6Z_b-kMBBnA/thumb-320.jpg""></a><br>Streetwise Score: 28.62849175876901";2;0;47.4255745,9.3813936;47.4255745;9.3813936
EePo_LZozL7nF2qvmpUmqg;22.322087144748497;"<a target=""_blank"" href=""https://www.mapillary.com/map/im/EePo_LZozL7nF2qvmpUmqg""><img style=""width:200px"" src=""https://images.mapillary.com/EePo_LZozL7nF2qvmpUmqg/thumb-320.jpg""></a><br>Streetwise Score: 22.322087144748497";2;0;47.4263137,9.3907843;47.4263137;9.3907843
x2kUN5sxdWiu3Rk6atmZqw;38.30396361935354;"<a target=""_blank"" href=""https://www.mapillary.com/map/im/x2kUN5sxdWiu3Rk6atmZqw""><img style=""width:200px"" src=""https://images.mapillary.com/x2kUN5sxdWiu3Rk6atmZqw/thumb-320.jpg""></a><br>Streetwise Score: 38.30396361935354";3;+;47.426349,9.3905424;47.426349;9.3905424
CnveEkr-6MdhSEkZjOI0dA;34.44783798036121;"<a target=""_blank"" href=""https://www.mapillary.com/map/im/CnveEkr-6MdhSEkZjOI0dA""><img style=""width:200px"" src=""https://images.mapillary.com/CnveEkr-6MdhSEkZjOI0dA/thumb-320.jpg""></a><br>Streetwise Score: 34.44783798036121";3;+;47.4263506,9.3905302;47.4263506;9.3905302
QylLxcuy_8YmQs01AzgZlQ;36.2797823986034;"<a target=""_blank"" href=""https://www.mapillary.com/map/im/QylLxcuy_8YmQs01AzgZlQ""><img style=""width:200px"" src=""https://images.mapillary.com/QylLxcuy_8YmQs01AzgZlQ/thumb-320.jpg""></a><br>Streetwise Score: 36.2797823986034";3;+;47.4266225,9.3890866;47.4266225;9.3890866
CS3lDLrwmHqR1r32y8Fx5Q;35.101028256355626;"<a target=""_blank"" href=""https://www.mapillary.com/map/im/CS3lDLrwmHqR1r32y8Fx5Q""><img style=""width:200px"" src=""https://images.mapillary.com/CS3lDLrwmHqR1r32y8Fx5Q/thumb-320.jpg""></a><br>Streetwise Score: 35.101028256355626";3;+;47.4265708,9.3884274;47.4265708;9.3884274
0De-R0xncpl000RASeEgFg;40.067090572840705;"<a target=""_blank"" href=""https://www.mapillary.com/map/im/0De-R0xncpl000RASeEgFg""><img style=""width:200px"" src=""https://images.mapillary.com/0De-R0xncpl000RASeEgFg/thumb-320.jpg""></a><br>Streetwise Score: 40.067090572840705";4;wahrgenommene Sicherheit hoch;47.4265605,9.3880301;47.4265605;9.3880301
Mk0saioBQtsW8qQhvvXkFA;33.52602884207969;"<a target=""_blank"" href=""https://www.mapillary.com/map/im/Mk0saioBQtsW8qQhvvXkFA""><img style=""width:200px"" src=""https://images.mapillary.com/Mk0saioBQtsW8qQhvvXkFA/thumb-320.jpg""></a><br>Streetwise Score: 33.52602884207969";3;+;47.4264419,9.3870274;47.4264419;9.3870274
UHCzHe7cPlPezszrlG7WuA;42.016406517717805;"<a target=""_blank"" href=""https://www.mapillary.com/map/im/UHCzHe7cPlPezszrlG7WuA""><img style=""width:200px"" src=""https://images.mapillary.com/UHCzHe7cPlPezszrlG7WuA/thumb-320.jpg""></a><br>Streetwise Score: 42.016406517717805";4;wahrgenommene Sicherheit hoch;47.4261935,9.3915716;47.4261935;9.3915716
fvybC0vA2J46K3nTHQuakA;41.92886096874618;"<a target=""_blank"" href=""https://www.mapillary.com/map/im/fvybC0vA2J46K3nTHQuakA""><img style=""width:200px"" src=""https://images.mapillary.com/fvybC0vA2J46K3nTHQuakA/thumb-320.jpg""></a><br>Streetwise Score: 41.92886096874618";4;wahrgenommene Sicherheit hoch;47.4262011,9.3915091;47.4262011;9.3915091
lyEQw_aJq3x3afw4Iru_Iw;38.36759435457707;"<a target=""_blank"" href=""https://www.mapillary.com/map/im/lyEQw_aJq3x3afw4Iru_Iw""><img style=""width:200px"" src=""https://images.mapillary.com/lyEQw_aJq3x3afw4Iru_Iw/thumb-320.jpg""></a><br>Streetwise Score: 38.36759435457707";3;+;47.4262152,9.3913949;47.4262152;9.3913949
MvR9ongC6UYJMc45KQUAig;31.066848209312578;"<a target=""_blank"" href=""https://www.mapillary.com/map/im/MvR9ongC6UYJMc45KQUAig""><img style=""width:200px"" src=""https://images.mapillary.com/MvR9ongC6UYJMc45KQUAig/thumb-320.jpg""></a><br>Streetwise Score: 31.066848209312578";3;+;47.430022,9.3637941;47.430022;9.3637941
hJfzmL-c2Hpeqf8jLKpt_w;13.283616793410875;"<a target=""_blank"" href=""https://www.mapillary.com/map/im/hJfzmL-c2Hpeqf8jLKpt_w""><img style=""width:200px"" src=""https://images.mapillary.com/hJfzmL-c2Hpeqf8jLKpt_w/thumb-320.jpg""></a><br>Streetwise Score: 13.283616793410875";1;-;47.4288531,9.361439;47.4288531;9.361439
lwgeL1NG38jOkpdGM01sFw;25.634535279991507;"<a target=""_blank"" href=""https://www.mapillary.com/map/im/lwgeL1NG38jOkpdGM01sFw""><img style=""width:200px"" src=""https://images.mapillary.com/lwgeL1NG38jOkpdGM01sFw/thumb-320.jpg""></a><br>Streetwise Score: 25.634535279991507";2;0;47.4237309,9.3473343;47.4237309;9.3473343
dlmk0rsVkGU1OfzLSNQ9zQ;20.151271252234356;"<a target=""_blank"" href=""https://www.mapillary.com/map/im/dlmk0rsVkGU1OfzLSNQ9zQ""><img style=""width:200px"" src=""https://images.mapillary.com/dlmk0rsVkGU1OfzLSNQ9zQ/thumb-320.jpg""></a><br>Streetwise Score: 20.151271252234356";2;0;47.4208914,9.3365558;47.4208914;9.3365558
R4hZMNawObmZYrsjtHNZrA;20.485691328939776;"<a target=""_blank"" href=""https://www.mapillary.com/map/im/R4hZMNawObmZYrsjtHNZrA""><img style=""width:200px"" src=""https://images.mapillary.com/R4hZMNawObmZYrsjtHNZrA/thumb-320.jpg""></a><br>Streetwise Score: 20.485691328939776";2;0;47.420275,9.3338206;47.420275;9.3338206
g5v1yrXWg7h-85N9lFxOMg;22.494919973629823;"<a target=""_blank"" href=""https://www.mapillary.com/map/im/g5v1yrXWg7h-85N9lFxOMg""><img style=""width:200px"" src=""https://images.mapillary.com/g5v1yrXWg7h-85N9lFxOMg/thumb-320.jpg""></a><br>Streetwise Score: 22.494919973629823";2;0;47.4183719,9.3287355;47.4183719;9.3287355
5TA4kbtFaPzepRd3aaeTWA;23.231051519745606;"<a target=""_blank"" href=""https://www.mapillary.com/map/im/5TA4kbtFaPzepRd3aaeTWA""><img style=""width:200px"" src=""https://images.mapillary.com/5TA4kbtFaPzepRd3aaeTWA/thumb-320.jpg""></a><br>Streetwise Score: 23.231051519745606";2;0;47.4171025,9.3231445;47.4171025;9.3231445
iT3NSFoKwxYoDTg_s3-RZQ;26.7487747046112;"<a target=""_blank"" href=""https://www.mapillary.com/map/im/iT3NSFoKwxYoDTg_s3-RZQ""><img style=""width:200px"" src=""https://images.mapillary.com/iT3NSFoKwxYoDTg_s3-RZQ/thumb-320.jpg""></a><br>Streetwise Score: 26.7487747046112";2;0;47.4164434,9.320404;47.4164434;9.320404
PXycP1E-bf2U6kPJvA3-TA;25.994489155799574;"<a target=""_blank"" href=""https://www.mapillary.com/map/im/PXycP1E-bf2U6kPJvA3-TA""><img style=""width:200px"" src=""https://images.mapillary.com/PXycP1E-bf2U6kPJvA3-TA/thumb-320.jpg""></a><br>Streetwise Score: 25.994489155799574";2;0;47.4130638,9.3132502;47.4130638;9.3132502
tsnJyD1I2PzEVpb6zOwuUQ;27.037890185073255;"<a target=""_blank"" href=""https://www.mapillary.com/map/im/tsnJyD1I2PzEVpb6zOwuUQ""><img style=""width:200px"" src=""https://images.mapillary.com/tsnJyD1I2PzEVpb6zOwuUQ/thumb-320.jpg""></a><br>Streetwise Score: 27.037890185073255";2;0;47.4123847,9.3121853;47.4123847;9.3121853
cRXDBRT96_AB5pLd-I6UeQ;18.26680416627852;"<a target=""_blank"" href=""https://www.mapillary.com/map/im/cRXDBRT96_AB5pLd-I6UeQ""><img style=""width:200px"" src=""https://images.mapillary.com/cRXDBRT96_AB5pLd-I6UeQ/thumb-320.jpg""></a><br>Streetwise Score: 18.26680416627852";1;-;47.4111104,9.3099084;47.4111104;9.3099084
TZKpeitDUjnJ3Un3GVmoFw;19.990687799697703;"<a target=""_blank"" href=""https://www.mapillary.com/map/im/TZKpeitDUjnJ3Un3GVmoFw""><img style=""width:200px"" src=""https://images.mapillary.com/TZKpeitDUjnJ3Un3GVmoFw/thumb-320.jpg""></a><br>Streetwise Score: 19.990687799697703";2;0;47.4100011,9.3074765;47.4100011;9.3074765
Dmgs0X9ugG-eYTq5i-4ILA;21.400727998934407;"<a target=""_blank"" href=""https://www.mapillary.com/map/im/Dmgs0X9ugG-eYTq5i-4ILA""><img style=""width:200px"" src=""https://images.mapillary.com/Dmgs0X9ugG-eYTq5i-4ILA/thumb-320.jpg""></a><br>Streetwise Score: 21.400727998934407";2;0;47.4080375,9.2992408;47.4080375;9.2992408
xddkfwgkaavimd11gtsBvA;18.60108534009674;"<a target=""_blank"" href=""https://www.mapillary.com/map/im/xddkfwgkaavimd11gtsBvA""><img style=""width:200px"" src=""https://images.mapillary.com/xddkfwgkaavimd11gtsBvA/thumb-320.jpg""></a><br>Streetwise Score: 18.60108534009674";1;-;47.4086011,9.2934965;47.4086011;9.2934965
j8a6IyLAdLZWPiLe9c1tQw;18.01277254958018;"<a target=""_blank"" href=""https://www.mapillary.com/map/im/j8a6IyLAdLZWPiLe9c1tQw""><img style=""width:200px"" src=""https://images.mapillary.com/j8a6IyLAdLZWPiLe9c1tQw/thumb-320.jpg""></a><br>Streetwise Score: 18.01277254958018";1;-;47.4095325,9.2909292;47.4095325;9.2909292
5gfM9aQJNdme4Br590BIRw;12.094748567655582;"<a target=""_blank"" href=""https://www.mapillary.com/map/im/5gfM9aQJNdme4Br590BIRw""><img style=""width:200px"" src=""https://images.mapillary.com/5gfM9aQJNdme4Br590BIRw/thumb-320.jpg""></a><br>Streetwise Score: 12.094748567655582";1;-;47.4367027,9.3993303;47.4367027;9.3993303
YThcOLwkKqhoYN7W142pDg;31.92387473003899;"<a target=""_blank"" href=""https://www.mapillary.com/map/im/YThcOLwkKqhoYN7W142pDg""><img style=""width:200px"" src=""https://images.mapillary.com/YThcOLwkKqhoYN7W142pDg/thumb-320.jpg""></a><br>Streetwise Score: 31.92387473003899";3;+;47.4229111,9.3680111;47.4229111;9.3680111
HMN1AjF7DN6ialf7-iFi0w;24.373609388049985;"<a target=""_blank"" href=""https://www.mapillary.com/map/im/HMN1AjF7DN6ialf7-iFi0w""><img style=""width:200px"" src=""https://images.mapillary.com/HMN1AjF7DN6ialf7-iFi0w/thumb-320.jpg""></a><br>Streetwise Score: 24.373609388049985";2;0;47.4226389,9.3685389;47.4226389;9.3685389
ZQv7Rdz7o6072Z5_YMbWFA;32.64151583398584;"<a target=""_blank"" href=""https://www.mapillary.com/map/im/ZQv7Rdz7o6072Z5_YMbWFA""><img style=""width:200px"" src=""https://images.mapillary.com/ZQv7Rdz7o6072Z5_YMbWFA/thumb-320.jpg""></a><br>Streetwise Score: 32.64151583398584";3;+;47.4227194,9.3683194;47.4227194;9.3683194
prH5lnG1zVBD6hkg5Inm4g;24.428375724101176;"<a target=""_blank"" href=""https://www.mapillary.com/map/im/prH5lnG1zVBD6hkg5Inm4g""><img style=""width:200px"" src=""https://images.mapillary.com/prH5lnG1zVBD6hkg5Inm4g/thumb-320.jpg""></a><br>Streetwise Score: 24.428375724101176";2;0;47.4230111,9.3696111;47.4230111;9.3696111
9WuV4X1xfFeHDAkDh0RSig;25.22699322535216;"<a target=""_blank"" href=""https://www.mapillary.com/map/im/9WuV4X1xfFeHDAkDh0RSig""><img style=""width:200px"" src=""https://images.mapillary.com/9WuV4X1xfFeHDAkDh0RSig/thumb-320.jpg""></a><br>Streetwise Score: 25.22699322535216";2;0;47.4230306,9.3696306;47.4230306;9.3696306
ohalZsR8_Gn1cu43BEKbEA;18.85017361983079;"<a target=""_blank"" href=""https://www.mapillary.com/map/im/ohalZsR8_Gn1cu43BEKbEA""><img style=""width:200px"" src=""https://images.mapillary.com/ohalZsR8_Gn1cu43BEKbEA/thumb-320.jpg""></a><br>Streetwise Score: 18.85017361983079";1;-;47.4232,9.3699;47.4232;9.3699
1LuHohj3_TpbwG4xnq1g2w;29.207272059219616;"<a target=""_blank"" href=""https://www.mapillary.com/map/im/1LuHohj3_TpbwG4xnq1g2w""><img style=""width:200px"" src=""https://images.mapillary.com/1LuHohj3_TpbwG4xnq1g2w/thumb-320.jpg""></a><br>Streetwise Score: 29.207272059219616";3;+;47.4275,9.358634;47.4275;9.358634
xaf_BAoSvr1u_sjbNk7QPg;13.152774811550094;"<a target=""_blank"" href=""https://www.mapillary.com/map/im/xaf_BAoSvr1u_sjbNk7QPg""><img style=""width:200px"" src=""https://images.mapillary.com/xaf_BAoSvr1u_sjbNk7QPg/thumb-320.jpg""></a><br>Streetwise Score: 13.152774811550094";1;-;47.426747,9.357074;47.426747;9.357074
pOVqMi5DLkM1kjYslg57hw;17.934163974995577;"<a target=""_blank"" href=""https://www.mapillary.com/map/im/pOVqMi5DLkM1kjYslg57hw""><img style=""width:200px"" src=""https://images.mapillary.com/pOVqMi5DLkM1kjYslg57hw/thumb-320.jpg""></a><br>Streetwise Score: 17.934163974995577";1;-;47.436938,9.399672;47.436938;9.399672
vqCl97bCULyHAMEDgPjuLw;16.510197360809393;"<a target=""_blank"" href=""https://www.mapillary.com/map/im/vqCl97bCULyHAMEDgPjuLw""><img style=""width:200px"" src=""https://images.mapillary.com/vqCl97bCULyHAMEDgPjuLw/thumb-320.jpg""></a><br>Streetwise Score: 16.510197360809393";1;-;47.433897,9.391853;47.433897;9.391853
lkgGDsZ6yK4SA9vvAEfMtg;22.526024705924918;"<a target=""_blank"" href=""https://www.mapillary.com/map/im/lkgGDsZ6yK4SA9vvAEfMtg""><img style=""width:200px"" src=""https://images.mapillary.com/lkgGDsZ6yK4SA9vvAEfMtg/thumb-320.jpg""></a><br>Streetwise Score: 22.526024705924918";2;0;47.433738,9.390967;47.433738;9.390967
pbZBSVWVwtfy4CJ74xSDYw;19.489288788774942;"<a target=""_blank"" href=""https://www.mapillary.com/map/im/pbZBSVWVwtfy4CJ74xSDYw""><img style=""width:200px"" src=""https://images.mapillary.com/pbZBSVWVwtfy4CJ74xSDYw/thumb-320.jpg""></a><br>Streetwise Score: 19.489288788774942";2;0;47.43347,9.389187;47.43347;9.389187
YMP63B_11ksWLyLmK8KjUg;2.711154895383504;"<a target=""_blank"" href=""https://www.mapillary.com/map/im/YMP63B_11ksWLyLmK8KjUg""><img style=""width:200px"" src=""https://images.mapillary.com/YMP63B_11ksWLyLmK8KjUg/thumb-320.jpg""></a><br>Streetwise Score: 2.711154895383504";0;wahrgenommene Sicherheit tief;47.432881,9.384497;47.432881;9.384497
FqR8D9fkPcmWTy8ajVDG1g;39.06636627074195;"<a target=""_blank"" href=""https://www.mapillary.com/map/im/FqR8D9fkPcmWTy8ajVDG1g""><img style=""width:200px"" src=""https://images.mapillary.com/FqR8D9fkPcmWTy8ajVDG1g/thumb-320.jpg""></a><br>Streetwise Score: 39.06636627074195";0;wahrgenommene Sicherheit tief;47.427564,9.377814;47.427564;9.377814
mVufyh4-54cZD-jp04iVZw;34.756493366665346;"<a target=""_blank"" href=""https://www.mapillary.com/map/im/mVufyh4-54cZD-jp04iVZw""><img style=""width:200px"" src=""https://images.mapillary.com/mVufyh4-54cZD-jp04iVZw/thumb-320.jpg""></a><br>Streetwise Score: 34.756493366665346";3;+;47.427303,9.377854;47.427303;9.377854
p_nVqX_2f7luASLsJWFkvA;44.441603647553734;"<a target=""_blank"" href=""https://www.mapillary.com/map/im/p_nVqX_2f7luASLsJWFkvA""><img style=""width:200px"" src=""https://images.mapillary.com/p_nVqX_2f7luASLsJWFkvA/thumb-320.jpg""></a><br>Streetwise Score: 44.441603647553734";4;wahrgenommene Sicherheit hoch;47.426901,9.37788;47.426901;9.37788
wqADCqeagdkk2NRX51K6tw;34.94394946262724;"<a target=""_blank"" href=""https://www.mapillary.com/map/im/wqADCqeagdkk2NRX51K6tw""><img style=""width:200px"" src=""https://images.mapillary.com/wqADCqeagdkk2NRX51K6tw/thumb-320.jpg""></a><br>Streetwise Score: 34.94394946262724";3;+;47.426716,9.377934;47.426716;9.377934
IQdoxtGle6VkeULVzn2AEA;27.632696566073825;"<a target=""_blank"" href=""https://www.mapillary.com/map/im/IQdoxtGle6VkeULVzn2AEA""><img style=""width:200px"" src=""https://images.mapillary.com/IQdoxtGle6VkeULVzn2AEA/thumb-320.jpg""></a><br>Streetwise Score: 27.632696566073825";2;0;47.426521,9.377558;47.426521;9.377558
tfoRjNzl_-X5U1wviRVAQw;35.6009089727919;"<a target=""_blank"" href=""https://www.mapillary.com/map/im/tfoRjNzl_-X5U1wviRVAQw""><img style=""width:200px"" src=""https://images.mapillary.com/tfoRjNzl_-X5U1wviRVAQw/thumb-320.jpg""></a><br>Streetwise Score: 35.6009089727919";3;+;47.42986,9.379458;47.42986;9.379458
W6XkRcC3aZC8SOIFC7lnFQ;35.20352041289458;"<a target=""_blank"" href=""https://www.mapillary.com/map/im/W6XkRcC3aZC8SOIFC7lnFQ""><img style=""width:200px"" src=""https://images.mapillary.com/W6XkRcC3aZC8SOIFC7lnFQ/thumb-320.jpg""></a><br>Streetwise Score: 35.20352041289458";3;+;47.429704,9.379362;47.429704;9.379362
5p3E9Jy3P8TpaTfdEFSJCA;34.9939504880097;"<a target=""_blank"" href=""https://www.mapillary.com/map/im/5p3E9Jy3P8TpaTfdEFSJCA""><img style=""width:200px"" src=""https://images.mapillary.com/5p3E9Jy3P8TpaTfdEFSJCA/thumb-320.jpg""></a><br>Streetwise Score: 34.9939504880097";3;+;47.429643,9.379256;47.429643;9.379256
0SYyefT0zJEF2LMuLKIo9g;33.521379597610085;"<a target=""_blank"" href=""https://www.mapillary.com/map/im/0SYyefT0zJEF2LMuLKIo9g""><img style=""width:200px"" src=""https://images.mapillary.com/0SYyefT0zJEF2LMuLKIo9g/thumb-320.jpg""></a><br>Streetwise Score: 33.521379597610085";3;+;47.428945,9.378071;47.428945;9.378071
CztIdcgFozE69QiqGumvXQ;35.19557318608444;"<a target=""_blank"" href=""https://www.mapillary.com/map/im/CztIdcgFozE69QiqGumvXQ""><img style=""width:200px"" src=""https://images.mapillary.com/CztIdcgFozE69QiqGumvXQ/thumb-320.jpg""></a><br>Streetwise Score: 35.19557318608444";3;+;47.428596,9.377527;47.428596;9.377527
qmsmZ3w-Zr33vMhrSEXMnQ;29.287377085987853;"<a target=""_blank"" href=""https://www.mapillary.com/map/im/qmsmZ3w-Zr33vMhrSEXMnQ""><img style=""width:200px"" src=""https://images.mapillary.com/qmsmZ3w-Zr33vMhrSEXMnQ/thumb-320.jpg""></a><br>Streetwise Score: 29.287377085987853";3;+;47.422941,9.370449;47.422941;9.370449
XamcRmdtDpmlDl_utUkhAQ;31.505006329264884;"<a target=""_blank"" href=""https://www.mapillary.com/map/im/XamcRmdtDpmlDl_utUkhAQ""><img style=""width:200px"" src=""https://images.mapillary.com/XamcRmdtDpmlDl_utUkhAQ/thumb-320.jpg""></a><br>Streetwise Score: 31.505006329264884";3;+;47.423008,9.370492;47.423008;9.370492
77yaAK3lqpXx1nH5BjYW9A;26.37922348641065;"<a target=""_blank"" href=""https://www.mapillary.com/map/im/77yaAK3lqpXx1nH5BjYW9A""><img style=""width:200px"" src=""https://images.mapillary.com/77yaAK3lqpXx1nH5BjYW9A/thumb-320.jpg""></a><br>Streetwise Score: 26.37922348641065";2;0;47.423066,9.370545;47.423066;9.370545
yTgdYZj6rjOntaCg3eXwLA;18.866229810972865;"<a target=""_blank"" href=""https://www.mapillary.com/map/im/yTgdYZj6rjOntaCg3eXwLA""><img style=""width:200px"" src=""https://images.mapillary.com/yTgdYZj6rjOntaCg3eXwLA/thumb-320.jpg""></a><br>Streetwise Score: 18.866229810972865";1;-;47.423131,9.370625;47.423131;9.370625
098I7l_Stn5dYmIWk2YiPA;34.5481179117696;"<a target=""_blank"" href=""https://www.mapillary.com/map/im/098I7l_Stn5dYmIWk2YiPA""><img style=""width:200px"" src=""https://images.mapillary.com/098I7l_Stn5dYmIWk2YiPA/thumb-320.jpg""></a><br>Streetwise Score: 34.5481179117696";3;+;47.423175,9.370688;47.423175;9.370688
rwoWW3BI5X6iNXE8XqPxMQ;35.25593830187871;"<a target=""_blank"" href=""https://www.mapillary.com/map/im/rwoWW3BI5X6iNXE8XqPxMQ""><img style=""width:200px"" src=""https://images.mapillary.com/rwoWW3BI5X6iNXE8XqPxMQ/thumb-320.jpg""></a><br>Streetwise Score: 35.25593830187871";3;+;47.422794,9.388767;47.422794;9.388767
1F6bePrkpWCUKOwXaVOT9Q;37.711138496986074;"<a target=""_blank"" href=""https://www.mapillary.com/map/im/1F6bePrkpWCUKOwXaVOT9Q""><img style=""width:200px"" src=""https://images.mapillary.com/1F6bePrkpWCUKOwXaVOT9Q/thumb-320.jpg""></a><br>Streetwise Score: 37.711138496986074";3;+;47.4298498,9.363625;47.4298498;9.363625
yJSeJy_rOZFdkFcypvt1_w;15.579361741796866;"<a target=""_blank"" href=""https://www.mapillary.com/map/im/yJSeJy_rOZFdkFcypvt1_w""><img style=""width:200px"" src=""https://images.mapillary.com/yJSeJy_rOZFdkFcypvt1_w/thumb-320.jpg""></a><br>Streetwise Score: 15.579361741796866";1;-;47.4290212,9.36183;47.4290212;9.36183
zX5naw0t2FRfuCOy4SI3rg;28.492530712984443;"<a target=""_blank"" href=""https://www.mapillary.com/map/im/zX5naw0t2FRfuCOy4SI3rg""><img style=""width:200px"" src=""https://images.mapillary.com/zX5naw0t2FRfuCOy4SI3rg/thumb-320.jpg""></a><br>Streetwise Score: 28.492530712984443";2;0;47.428023,9.3597705;47.428023;9.3597705
HWn9XAfDzazNBHnSbkiA9A;22.075580992881182;"<a target=""_blank"" href=""https://www.mapillary.com/map/im/HWn9XAfDzazNBHnSbkiA9A""><img style=""width:200px"" src=""https://images.mapillary.com/HWn9XAfDzazNBHnSbkiA9A/thumb-320.jpg""></a><br>Streetwise Score: 22.075580992881182";2;0;47.4357719,9.3977035;47.4357719;9.3977035
wyMKfYYfqjyVtlb7Do9vHg;21.932770414362825;"<a target=""_blank"" href=""https://www.mapillary.com/map/im/wyMKfYYfqjyVtlb7Do9vHg""><img style=""width:200px"" src=""https://images.mapillary.com/wyMKfYYfqjyVtlb7Do9vHg/thumb-320.jpg""></a><br>Streetwise Score: 21.932770414362825";2;0;47.4346827,9.3947746;47.4346827;9.3947746
3mGD4Kq6f6Qe_2XO_ywYTQ;14.39777794714319;"<a target=""_blank"" href=""https://www.mapillary.com/map/im/3mGD4Kq6f6Qe_2XO_ywYTQ""><img style=""width:200px"" src=""https://images.mapillary.com/3mGD4Kq6f6Qe_2XO_ywYTQ/thumb-320.jpg""></a><br>Streetwise Score: 14.39777794714319";1;-;47.4335038,9.389245;47.4335038;9.389245
NePkPKv8grcY8K31XjpTzQ;22.798606162636503;"<a target=""_blank"" href=""https://www.mapillary.com/map/im/NePkPKv8grcY8K31XjpTzQ""><img style=""width:200px"" src=""https://images.mapillary.com/NePkPKv8grcY8K31XjpTzQ/thumb-320.jpg""></a><br>Streetwise Score: 22.798606162636503";2;0;47.4330711,9.3860377;47.4330711;9.3860377
D-fIDDPhjKBEnaUbAdBduw;5.684656956256706;"<a target=""_blank"" href=""https://www.mapillary.com/map/im/D-fIDDPhjKBEnaUbAdBduw""><img style=""width:200px"" src=""https://images.mapillary.com/D-fIDDPhjKBEnaUbAdBduw/thumb-320.jpg""></a><br>Streetwise Score: 5.684656956256706";0;wahrgenommene Sicherheit tief;47.4327434,9.3842546;47.4327434;9.3842546
7qguFmT13Du8xkLnZk0vBQ;2.9452409727164106;"<a target=""_blank"" href=""https://www.mapillary.com/map/im/7qguFmT13Du8xkLnZk0vBQ""><img style=""width:200px"" src=""https://images.mapillary.com/7qguFmT13Du8xkLnZk0vBQ/thumb-320.jpg""></a><br>Streetwise Score: 2.9452409727164106";0;wahrgenommene Sicherheit tief;47.4327434,9.3842546;47.4327434;9.3842546
I3h9fGfaURXeDgIc_gLkfw;26.53881441045869;"<a target=""_blank"" href=""https://www.mapillary.com/map/im/I3h9fGfaURXeDgIc_gLkfw""><img style=""width:200px"" src=""https://images.mapillary.com/I3h9fGfaURXeDgIc_gLkfw/thumb-320.jpg""></a><br>Streetwise Score: 26.53881441045869";2;0;47.433074,9.387659;47.433074;9.387659
AMhgf7BNj0Kau-VqaW7nZQ;33.34575163462177;"<a target=""_blank"" href=""https://www.mapillary.com/map/im/AMhgf7BNj0Kau-VqaW7nZQ""><img style=""width:200px"" src=""https://images.mapillary.com/AMhgf7BNj0Kau-VqaW7nZQ/thumb-320.jpg""></a><br>Streetwise Score: 33.34575163462177";3;+;47.43315,9.388511;47.43315;9.388511
z5UOPio3MBdkQnmXkUlhvw;29.875720311289353;"<a target=""_blank"" href=""https://www.mapillary.com/map/im/z5UOPio3MBdkQnmXkUlhvw""><img style=""width:200px"" src=""https://images.mapillary.com/z5UOPio3MBdkQnmXkUlhvw/thumb-320.jpg""></a><br>Streetwise Score: 29.875720311289353";3;+;47.431726,9.3914259;47.431726;9.3914259
Dzh-32RPuJ4y0P3BFR6NCw;35.6852080311329;"<a target=""_blank"" href=""https://www.mapillary.com/map/im/Dzh-32RPuJ4y0P3BFR6NCw""><img style=""width:200px"" src=""https://images.mapillary.com/Dzh-32RPuJ4y0P3BFR6NCw/thumb-320.jpg""></a><br>Streetwise Score: 35.6852080311329";3;+;47.429976,9.389803;47.429976;9.389803
C4sJHfAtNpm29hG6DcWzqA;32.82590031674712;"<a target=""_blank"" href=""https://www.mapillary.com/map/im/C4sJHfAtNpm29hG6DcWzqA""><img style=""width:200px"" src=""https://images.mapillary.com/C4sJHfAtNpm29hG6DcWzqA/thumb-320.jpg""></a><br>Streetwise Score: 32.82590031674712";3;+;47.429566,9.388851;47.429566;9.388851
1g85vBqJ5TFRBnJHaiTSqw;29.812277998256114;"<a target=""_blank"" href=""https://www.mapillary.com/map/im/1g85vBqJ5TFRBnJHaiTSqw""><img style=""width:200px"" src=""https://images.mapillary.com/1g85vBqJ5TFRBnJHaiTSqw/thumb-320.jpg""></a><br>Streetwise Score: 29.812277998256114";3;+;47.428066,9.385415;47.428066;9.385415
0d8OjiY_IHX8XIAFEUX1Aw;29.83626645434387;"<a target=""_blank"" href=""https://www.mapillary.com/map/im/0d8OjiY_IHX8XIAFEUX1Aw""><img style=""width:200px"" src=""https://images.mapillary.com/0d8OjiY_IHX8XIAFEUX1Aw/thumb-320.jpg""></a><br>Streetwise Score: 29.83626645434387";3;+;47.426939,9.383058;47.426939;9.383058
o66GReob_Mxadfw_r_85Tg;27.229189623453514;"<a target=""_blank"" href=""https://www.mapillary.com/map/im/o66GReob_Mxadfw_r_85Tg""><img style=""width:200px"" src=""https://images.mapillary.com/o66GReob_Mxadfw_r_85Tg/thumb-320.jpg""></a><br>Streetwise Score: 27.229189623453514";2;0;47.426035,9.382306;47.426035;9.382306
YVbYQkX4umW9dwgtyaEXDw;15.859288746921637;"<a target=""_blank"" href=""https://www.mapillary.com/map/im/YVbYQkX4umW9dwgtyaEXDw""><img style=""width:200px"" src=""https://images.mapillary.com/YVbYQkX4umW9dwgtyaEXDw/thumb-320.jpg""></a><br>Streetwise Score: 15.859288746921637";1;-;47.431431,9.3689;47.431431;9.3689
B_5VBxFrONEiNtElMnRmeA;5.443399362704929;"<a target=""_blank"" href=""https://www.mapillary.com/map/im/B_5VBxFrONEiNtElMnRmeA""><img style=""width:200px"" src=""https://images.mapillary.com/B_5VBxFrONEiNtElMnRmeA/thumb-320.jpg""></a><br>Streetwise Score: 5.443399362704929";0;wahrgenommene Sicherheit tief;47.408591,9.303221;47.408591;9.303221
yIvdwjAZBMltXHCI8s34CA;10.055783913086646;"<a target=""_blank"" href=""https://www.mapillary.com/map/im/yIvdwjAZBMltXHCI8s34CA""><img style=""width:200px"" src=""https://images.mapillary.com/yIvdwjAZBMltXHCI8s34CA/thumb-320.jpg""></a><br>Streetwise Score: 10.055783913086646";1;-;47.4103489,9.308488;47.4103489;9.308488
Hn431WB7CYhDQTPkvN1fqQ;16.75192420800868;"<a target=""_blank"" href=""https://www.mapillary.com/map/im/Hn431WB7CYhDQTPkvN1fqQ""><img style=""width:200px"" src=""https://images.mapillary.com/Hn431WB7CYhDQTPkvN1fqQ/thumb-320.jpg""></a><br>Streetwise Score: 16.75192420800868";1;-;47.413055,9.313386;47.413055;9.313386
S6QYSBNU73jEh57P7S5uaw;19.13506110269291;"<a target=""_blank"" href=""https://www.mapillary.com/map/im/S6QYSBNU73jEh57P7S5uaw""><img style=""width:200px"" src=""https://images.mapillary.com/S6QYSBNU73jEh57P7S5uaw/thumb-320.jpg""></a><br>Streetwise Score: 19.13506110269291";2;0;47.413791,9.3145399;47.413791;9.3145399
CZO43W-6TIx6Ro418qbbVQ;21.736288016284462;"<a target=""_blank"" href=""https://www.mapillary.com/map/im/CZO43W-6TIx6Ro418qbbVQ""><img style=""width:200px"" src=""https://images.mapillary.com/CZO43W-6TIx6Ro418qbbVQ/thumb-320.jpg""></a><br>Streetwise Score: 21.736288016284462";2;0;47.41675,9.32158;47.41675;9.32158
D6C7d6b2Z98UMCJJbVRjeA;17.784874147828447;"<a target=""_blank"" href=""https://www.mapillary.com/map/im/D6C7d6b2Z98UMCJJbVRjeA""><img style=""width:200px"" src=""https://images.mapillary.com/D6C7d6b2Z98UMCJJbVRjeA/thumb-320.jpg""></a><br>Streetwise Score: 17.784874147828447";1;-;47.417528,9.325615;47.417528;9.325615
wgwi2tEYGOcVztz38eqwJQ;8.462735329458408;"<a target=""_blank"" href=""https://www.mapillary.com/map/im/wgwi2tEYGOcVztz38eqwJQ""><img style=""width:200px"" src=""https://images.mapillary.com/wgwi2tEYGOcVztz38eqwJQ/thumb-320.jpg""></a><br>Streetwise Score: 8.462735329458408";0;wahrgenommene Sicherheit tief;47.421675,9.3409549;47.421675;9.3409549
g4sFjUybt-bU1fp2I1cF1w;9.249686259728701;"<a target=""_blank"" href=""https://www.mapillary.com/map/im/g4sFjUybt-bU1fp2I1cF1w""><img style=""width:200px"" src=""https://images.mapillary.com/g4sFjUybt-bU1fp2I1cF1w/thumb-320.jpg""></a><br>Streetwise Score: 9.249686259728701";1;-;47.426581,9.35698;47.426581;9.35698
bh0bEIi3_0hvzfSrdOdf_g;12.029114450089802;"<a target=""_blank"" href=""https://www.mapillary.com/map/im/bh0bEIi3_0hvzfSrdOdf_g""><img style=""width:200px"" src=""https://images.mapillary.com/bh0bEIi3_0hvzfSrdOdf_g/thumb-320.jpg""></a><br>Streetwise Score: 12.029114450089802";1;-;47.429888,9.363815;47.429888;9.363815
46ri0L0j0G-6obghJKAtfA;24.060033298854584;"<a target=""_blank"" href=""https://www.mapillary.com/map/im/46ri0L0j0G-6obghJKAtfA""><img style=""width:200px"" src=""https://images.mapillary.com/46ri0L0j0G-6obghJKAtfA/thumb-320.jpg""></a><br>Streetwise Score: 24.060033298854584";2;0;47.3908392,9.3570911;47.3908392;9.3570911
vCSMjIZR8HmSAOMQ6eNIXQ;25.974999314876424;"<a target=""_blank"" href=""https://www.mapillary.com/map/im/vCSMjIZR8HmSAOMQ6eNIXQ""><img style=""width:200px"" src=""https://images.mapillary.com/vCSMjIZR8HmSAOMQ6eNIXQ/thumb-320.jpg""></a><br>Streetwise Score: 25.974999314876424";2;0;47.3973615,9.353951;47.3973615;9.353951
EbQ4nuWX-FqFkIr0RZBeUw;21.20100938967287;"<a target=""_blank"" href=""https://www.mapillary.com/map/im/EbQ4nuWX-FqFkIr0RZBeUw""><img style=""width:200px"" src=""https://images.mapillary.com/EbQ4nuWX-FqFkIr0RZBeUw/thumb-320.jpg""></a><br>Streetwise Score: 21.20100938967287";2;0;47.4029462,9.3619844;47.4029462;9.3619844
y3rWSY7ILPibp0LXVdp9MQ;27.763411068333674;"<a target=""_blank"" href=""https://www.mapillary.com/map/im/y3rWSY7ILPibp0LXVdp9MQ""><img style=""width:200px"" src=""https://images.mapillary.com/y3rWSY7ILPibp0LXVdp9MQ/thumb-320.jpg""></a><br>Streetwise Score: 27.763411068333674";2;0;47.404924,9.3677672;47.404924;9.3677672
uZKXTeS-qYgDmqdFlem1ew;34.44832020642868;"<a target=""_blank"" href=""https://www.mapillary.com/map/im/uZKXTeS-qYgDmqdFlem1ew""><img style=""width:200px"" src=""https://images.mapillary.com/uZKXTeS-qYgDmqdFlem1ew/thumb-320.jpg""></a><br>Streetwise Score: 34.44832020642868";3;+;47.4125943,9.3646777;47.4125943;9.3646777
H7pk2ZXzBYggFKoEON8oMA;33.5478928458702;"<a target=""_blank"" href=""https://www.mapillary.com/map/im/H7pk2ZXzBYggFKoEON8oMA""><img style=""width:200px"" src=""https://images.mapillary.com/H7pk2ZXzBYggFKoEON8oMA/thumb-320.jpg""></a><br>Streetwise Score: 33.5478928458702";3;+;47.4132377,9.3638461;47.4132377;9.3638461
y3VBcV4nzY74PNA4r1LM3g;35.35391084748503;"<a target=""_blank"" href=""https://www.mapillary.com/map/im/y3VBcV4nzY74PNA4r1LM3g""><img style=""width:200px"" src=""https://images.mapillary.com/y3VBcV4nzY74PNA4r1LM3g/thumb-320.jpg""></a><br>Streetwise Score: 35.35391084748503";3;+;47.4166516,9.3612334;47.4166516;9.3612334
FJ9YHM7Ma4Ng-ST5MuA6OQ;33.805451692699066;"<a target=""_blank"" href=""https://www.mapillary.com/map/im/FJ9YHM7Ma4Ng-ST5MuA6OQ""><img style=""width:200px"" src=""https://images.mapillary.com/FJ9YHM7Ma4Ng-ST5MuA6OQ/thumb-320.jpg""></a><br>Streetwise Score: 33.805451692699066";3;+;47.4196106,9.3655739;47.4196106;9.3655739
sOqlcRPNB5aMuXu8WCbfvA;23.197453234273446;"<a target=""_blank"" href=""https://www.mapillary.com/map/im/sOqlcRPNB5aMuXu8WCbfvA""><img style=""width:200px"" src=""https://images.mapillary.com/sOqlcRPNB5aMuXu8WCbfvA/thumb-320.jpg""></a><br>Streetwise Score: 23.197453234273446";2;0;47.4204328,9.3661201;47.4204328;9.3661201
TyawVFem012qEakqzPZ86A;33.50407459247217;"<a target=""_blank"" href=""https://www.mapillary.com/map/im/TyawVFem012qEakqzPZ86A""><img style=""width:200px"" src=""https://images.mapillary.com/TyawVFem012qEakqzPZ86A/thumb-320.jpg""></a><br>Streetwise Score: 33.50407459247217";3;+;47.4209818,9.3668467;47.4209818;9.3668467
uuatbPIwuKAOxugnKG_dJQ;21.331069789592867;"<a target=""_blank"" href=""https://www.mapillary.com/map/im/uuatbPIwuKAOxugnKG_dJQ""><img style=""width:200px"" src=""https://images.mapillary.com/uuatbPIwuKAOxugnKG_dJQ/thumb-320.jpg""></a><br>Streetwise Score: 21.331069789592867";2;0;47.4213887,9.3675211;47.4213887;9.3675211
X0sFHM_3cE_q9-shPBTUZQ;27.23260312473234;"<a target=""_blank"" href=""https://www.mapillary.com/map/im/X0sFHM_3cE_q9-shPBTUZQ""><img style=""width:200px"" src=""https://images.mapillary.com/X0sFHM_3cE_q9-shPBTUZQ/thumb-320.jpg""></a><br>Streetwise Score: 27.23260312473234";2;0;47.4211457,9.3673065;47.4211457;9.3673065
CLbqmXtgQ5-_hl4hJvJL6Q;7.503744268883843;"<a target=""_blank"" href=""https://www.mapillary.com/map/im/CLbqmXtgQ5-_hl4hJvJL6Q""><img style=""width:200px"" src=""https://images.mapillary.com/CLbqmXtgQ5-_hl4hJvJL6Q/thumb-320.jpg""></a><br>Streetwise Score: 7.503744268883843";0;wahrgenommene Sicherheit tief;47.4227895,9.370271;47.4227895;9.370271
BYYCUHXnWRrnn7PFuEO9Gg;30.983267553298308;"<a target=""_blank"" href=""https://www.mapillary.com/map/im/BYYCUHXnWRrnn7PFuEO9Gg""><img style=""width:200px"" src=""https://images.mapillary.com/BYYCUHXnWRrnn7PFuEO9Gg/thumb-320.jpg""></a><br>Streetwise Score: 30.983267553298308";3;+;47.4257501,9.3801569;47.4257501;9.3801569
nDcVFFYLsmd-lQiZwhGIpQ;40.176888943964286;"<a target=""_blank"" href=""https://www.mapillary.com/map/im/nDcVFFYLsmd-lQiZwhGIpQ""><img style=""width:200px"" src=""https://images.mapillary.com/nDcVFFYLsmd-lQiZwhGIpQ/thumb-320.jpg""></a><br>Streetwise Score: 40.176888943964286";4;wahrgenommene Sicherheit hoch;47.4256021,9.3799527;47.4256021;9.3799527
hRRuqyRZ1gIjPrtmtAMvmQ;41.709918808671084;"<a target=""_blank"" href=""https://www.mapillary.com/map/im/hRRuqyRZ1gIjPrtmtAMvmQ""><img style=""width:200px"" src=""https://images.mapillary.com/hRRuqyRZ1gIjPrtmtAMvmQ/thumb-320.jpg""></a><br>Streetwise Score: 41.709918808671084";4;wahrgenommene Sicherheit hoch;47.4253122,9.3794954;47.4253122;9.3794954
bEy-kcNiXo3hU9CG9cyytw;33.15429815362419;"<a target=""_blank"" href=""https://www.mapillary.com/map/im/bEy-kcNiXo3hU9CG9cyytw""><img style=""width:200px"" src=""https://images.mapillary.com/bEy-kcNiXo3hU9CG9cyytw/thumb-320.jpg""></a><br>Streetwise Score: 33.15429815362419";3;+;47.4251613,9.3792435;47.4251613;9.3792435
X2H-TzVTXofnHYHUlVWFKg;35.07713631528753;"<a target=""_blank"" href=""https://www.mapillary.com/map/im/X2H-TzVTXofnHYHUlVWFKg""><img style=""width:200px"" src=""https://images.mapillary.com/X2H-TzVTXofnHYHUlVWFKg/thumb-320.jpg""></a><br>Streetwise Score: 35.07713631528753";3;+;47.4251867,9.3789129;47.4251867;9.3789129
MmdmztX473Ym4JPU2dcy2Q;35.33178716778645;"<a target=""_blank"" href=""https://www.mapillary.com/map/im/MmdmztX473Ym4JPU2dcy2Q""><img style=""width:200px"" src=""https://images.mapillary.com/MmdmztX473Ym4JPU2dcy2Q/thumb-320.jpg""></a><br>Streetwise Score: 35.33178716778645";3;+;47.4251627,9.3787626;47.4251627;9.3787626
YXPUvR5JQHDClh5q9BDg0Q;41.15436638793022;"<a target=""_blank"" href=""https://www.mapillary.com/map/im/YXPUvR5JQHDClh5q9BDg0Q""><img style=""width:200px"" src=""https://images.mapillary.com/YXPUvR5JQHDClh5q9BDg0Q/thumb-320.jpg""></a><br>Streetwise Score: 41.15436638793022";4;wahrgenommene Sicherheit hoch;47.4252904,9.3785487;47.4252904;9.3785487
ChFy3jB5AaPo_WNBv-Mm3Q;41.57472699552354;"<a target=""_blank"" href=""https://www.mapillary.com/map/im/ChFy3jB5AaPo_WNBv-Mm3Q""><img style=""width:200px"" src=""https://images.mapillary.com/ChFy3jB5AaPo_WNBv-Mm3Q/thumb-320.jpg""></a><br>Streetwise Score: 41.57472699552354";4;wahrgenommene Sicherheit hoch;47.4257558,9.3776049;47.4257558;9.3776049
p-XPxuxBOOdFA6hqMY0LYA;36.446766808575184;"<a target=""_blank"" href=""https://www.mapillary.com/map/im/p-XPxuxBOOdFA6hqMY0LYA""><img style=""width:200px"" src=""https://images.mapillary.com/p-XPxuxBOOdFA6hqMY0LYA/thumb-320.jpg""></a><br>Streetwise Score: 36.446766808575184";3;+;47.4259471,9.3772231;47.4259471;9.3772231
hbp92wM1YuAlcGAJkTW66g;42.79596191807743;"<a target=""_blank"" href=""https://www.mapillary.com/map/im/hbp92wM1YuAlcGAJkTW66g""><img style=""width:200px"" src=""https://images.mapillary.com/hbp92wM1YuAlcGAJkTW66g/thumb-320.jpg""></a><br>Streetwise Score: 42.79596191807743";4;wahrgenommene Sicherheit hoch;47.4260433,9.3771965;47.4260433;9.3771965
J2Jiu-kOz72tAzcSSKk4MA;23.491551297438384;"<a target=""_blank"" href=""https://www.mapillary.com/map/im/J2Jiu-kOz72tAzcSSKk4MA""><img style=""width:200px"" src=""https://images.mapillary.com/J2Jiu-kOz72tAzcSSKk4MA/thumb-320.jpg""></a><br>Streetwise Score: 23.491551297438384";2;0;47.4234,9.3704;47.4234;9.3704
WR5MBKaFh1_G6Za1f5S6rA;21.825492741949827;"<a target=""_blank"" href=""https://www.mapillary.com/map/im/WR5MBKaFh1_G6Za1f5S6rA""><img style=""width:200px"" src=""https://images.mapillary.com/WR5MBKaFh1_G6Za1f5S6rA/thumb-320.jpg""></a><br>Streetwise Score: 21.825492741949827";2;0;47.4237111,9.3698111;47.4237111;9.3698111
jAiSEdXR6pO0yANtb8-kYQ;23.32138314066829;"<a target=""_blank"" href=""https://www.mapillary.com/map/im/jAiSEdXR6pO0yANtb8-kYQ""><img style=""width:200px"" src=""https://images.mapillary.com/jAiSEdXR6pO0yANtb8-kYQ/thumb-320.jpg""></a><br>Streetwise Score: 23.32138314066829";2;0;47.4291832,9.3620047;47.4291832;9.3620047
x_TEyluSvRSZTUPYb_Cwqw;24.87554703686258;"<a target=""_blank"" href=""https://www.mapillary.com/map/im/x_TEyluSvRSZTUPYb_Cwqw""><img style=""width:200px"" src=""https://images.mapillary.com/x_TEyluSvRSZTUPYb_Cwqw/thumb-320.jpg""></a><br>Streetwise Score: 24.87554703686258";2;0;47.4289141,9.3614151;47.4289141;9.3614151
pNzUMMA-xXyRpj-o7-nNQA;24.357946490865437;"<a target=""_blank"" href=""https://www.mapillary.com/map/im/pNzUMMA-xXyRpj-o7-nNQA""><img style=""width:200px"" src=""https://images.mapillary.com/pNzUMMA-xXyRpj-o7-nNQA/thumb-320.jpg""></a><br>Streetwise Score: 24.357946490865437";2;0;47.4271967,9.3579369;47.4271967;9.3579369
0zZ7_Kp7tyZYYEuKf_UTgg;23.6889883934976;"<a target=""_blank"" href=""https://www.mapillary.com/map/im/0zZ7_Kp7tyZYYEuKf_UTgg""><img style=""width:200px"" src=""https://images.mapillary.com/0zZ7_Kp7tyZYYEuKf_UTgg/thumb-320.jpg""></a><br>Streetwise Score: 23.6889883934976";2;0;47.4268937,9.3572979;47.4268937;9.3572979
dBq3G_6FvqqwyE5dZW9PCQ;21.563484943148545;"<a target=""_blank"" href=""https://www.mapillary.com/map/im/dBq3G_6FvqqwyE5dZW9PCQ""><img style=""width:200px"" src=""https://images.mapillary.com/dBq3G_6FvqqwyE5dZW9PCQ/thumb-320.jpg""></a><br>Streetwise Score: 21.563484943148545";2;0;47.4225692,9.3440965;47.4225692;9.3440965
k1ULoKVFbyv8lpODFdjkHQ;21.843036977308508;"<a target=""_blank"" href=""https://www.mapillary.com/map/im/k1ULoKVFbyv8lpODFdjkHQ""><img style=""width:200px"" src=""https://images.mapillary.com/k1ULoKVFbyv8lpODFdjkHQ/thumb-320.jpg""></a><br>Streetwise Score: 21.843036977308508";2;0;47.4211537,9.3378347;47.4211537;9.3378347
GA_CAgziA8TEGX4rxu_niw;29.477692007383855;"<a target=""_blank"" href=""https://www.mapillary.com/map/im/GA_CAgziA8TEGX4rxu_niw""><img style=""width:200px"" src=""https://images.mapillary.com/GA_CAgziA8TEGX4rxu_niw/thumb-320.jpg""></a><br>Streetwise Score: 29.477692007383855";3;+;47.420096,9.3329712;47.420096;9.3329712
Lz3V3f9WNtdfEWwokQTDtw;30.480293324690205;"<a target=""_blank"" href=""https://www.mapillary.com/map/im/Lz3V3f9WNtdfEWwokQTDtw""><img style=""width:200px"" src=""https://images.mapillary.com/Lz3V3f9WNtdfEWwokQTDtw/thumb-320.jpg""></a><br>Streetwise Score: 30.480293324690205";3;+;47.4350003,9.3952037;47.4350003;9.3952037
7MTQ4VkCrLYNHG6LKqHgtw;26.692836944246793;"<a target=""_blank"" href=""https://www.mapillary.com/map/im/7MTQ4VkCrLYNHG6LKqHgtw""><img style=""width:200px"" src=""https://images.mapillary.com/7MTQ4VkCrLYNHG6LKqHgtw/thumb-320.jpg""></a><br>Streetwise Score: 26.692836944246793";2;0;47.4337694,9.3912934;47.4337694;9.3912934
7xmf7kN2Rs52uhB7hf27WQ;25.989254072266224;"<a target=""_blank"" href=""https://www.mapillary.com/map/im/7xmf7kN2Rs52uhB7hf27WQ""><img style=""width:200px"" src=""https://images.mapillary.com/7xmf7kN2Rs52uhB7hf27WQ/thumb-320.jpg""></a><br>Streetwise Score: 25.989254072266224";2;0;47.4336347,9.3906888;47.4336347;9.3906888
45Uq2_VNC4UdYlBEvP_MNg;28.04604194439444;"<a target=""_blank"" href=""https://www.mapillary.com/map/im/45Uq2_VNC4UdYlBEvP_MNg""><img style=""width:200px"" src=""https://images.mapillary.com/45Uq2_VNC4UdYlBEvP_MNg/thumb-320.jpg""></a><br>Streetwise Score: 28.04604194439444";2;0;47.4334894,9.3895131;47.4334894;9.3895131
FFKtl7-tfxbwd4qO8KZTlA;26.67622402993996;"<a target=""_blank"" href=""https://www.mapillary.com/map/im/FFKtl7-tfxbwd4qO8KZTlA""><img style=""width:200px"" src=""https://images.mapillary.com/FFKtl7-tfxbwd4qO8KZTlA/thumb-320.jpg""></a><br>Streetwise Score: 26.67622402993996";2;0;47.4331291,9.3864667;47.4331291;9.3864667
6OjOABQUhaFBFFS_nXa-Qg;27.830002476146166;"<a target=""_blank"" href=""https://www.mapillary.com/map/im/6OjOABQUhaFBFFS_nXa-Qg""><img style=""width:200px"" src=""https://images.mapillary.com/6OjOABQUhaFBFFS_nXa-Qg/thumb-320.jpg""></a><br>Streetwise Score: 27.830002476146166";2;0;47.4328895,9.3846216;47.4328895;9.3846216
8mhhnQ8y5wieB90a7szgew;20.924108338757122;"<a target=""_blank"" href=""https://www.mapillary.com/map/im/8mhhnQ8y5wieB90a7szgew""><img style=""width:200px"" src=""https://images.mapillary.com/8mhhnQ8y5wieB90a7szgew/thumb-320.jpg""></a><br>Streetwise Score: 20.924108338757122";2;0;47.4583721,9.4339682;47.4583721;9.4339682
j4szShEZui0TbBNSLicLgA;22.83165986304343;"<a target=""_blank"" href=""https://www.mapillary.com/map/im/j4szShEZui0TbBNSLicLgA""><img style=""width:200px"" src=""https://images.mapillary.com/j4szShEZui0TbBNSLicLgA/thumb-320.jpg""></a><br>Streetwise Score: 22.83165986304343";2;0;47.4575945,9.4330894;47.4575945;9.4330894
PCU-sr3G-CQ3VAf6JOdPWA;21.560959905171643;"<a target=""_blank"" href=""https://www.mapillary.com/map/im/PCU-sr3G-CQ3VAf6JOdPWA""><img style=""width:200px"" src=""https://images.mapillary.com/PCU-sr3G-CQ3VAf6JOdPWA/thumb-320.jpg""></a><br>Streetwise Score: 21.560959905171643";2;0;47.4568646,9.4320659;47.4568646;9.4320659
HQDGXDJNs18ZC1rU7fN7tQ;17.180668739193955;"<a target=""_blank"" href=""https://www.mapillary.com/map/im/HQDGXDJNs18ZC1rU7fN7tQ""><img style=""width:200px"" src=""https://images.mapillary.com/HQDGXDJNs18ZC1rU7fN7tQ/thumb-320.jpg""></a><br>Streetwise Score: 17.180668739193955";1;-;47.4565007,9.4315482;47.4565007;9.4315482
gXT6Qb_RHfgS_P9bgg-NKQ;20.74748752427214;"<a target=""_blank"" href=""https://www.mapillary.com/map/im/gXT6Qb_RHfgS_P9bgg-NKQ""><img style=""width:200px"" src=""https://images.mapillary.com/gXT6Qb_RHfgS_P9bgg-NKQ/thumb-320.jpg""></a><br>Streetwise Score: 20.74748752427214";2;0;47.4541503,9.4278056;47.4541503;9.4278056
ASnCIM025QktCTSQKbSElA;27.347641437065462;"<a target=""_blank"" href=""https://www.mapillary.com/map/im/ASnCIM025QktCTSQKbSElA""><img style=""width:200px"" src=""https://images.mapillary.com/ASnCIM025QktCTSQKbSElA/thumb-320.jpg""></a><br>Streetwise Score: 27.347641437065462";2;0;47.4538362,9.4273135;47.4538362;9.4273135
9S6ev6sfbgdVfFrSAiMNLA;26.45821475002422;"<a target=""_blank"" href=""https://www.mapillary.com/map/im/9S6ev6sfbgdVfFrSAiMNLA""><img style=""width:200px"" src=""https://images.mapillary.com/9S6ev6sfbgdVfFrSAiMNLA/thumb-320.jpg""></a><br>Streetwise Score: 26.45821475002422";2;0;47.4519986,9.4246327;47.4519986;9.4246327
rwix-3i5AugJ9TlNQzecWQ;12.615425239608264;"<a target=""_blank"" href=""https://www.mapillary.com/map/im/rwix-3i5AugJ9TlNQzecWQ""><img style=""width:200px"" src=""https://images.mapillary.com/rwix-3i5AugJ9TlNQzecWQ/thumb-320.jpg""></a><br>Streetwise Score: 12.615425239608264";1;-;47.4495357,9.4218378;47.4495357;9.4218378
T0E7z41rWL42HErsTqIO-A;22.665808136401868;"<a target=""_blank"" href=""https://www.mapillary.com/map/im/T0E7z41rWL42HErsTqIO-A""><img style=""width:200px"" src=""https://images.mapillary.com/T0E7z41rWL42HErsTqIO-A/thumb-320.jpg""></a><br>Streetwise Score: 22.665808136401868";2;0;47.4471232,9.4199892;47.4471232;9.4199892
ucyr5KF7hlFmLs5qret0iA;13.767830206069116;"<a target=""_blank"" href=""https://www.mapillary.com/map/im/ucyr5KF7hlFmLs5qret0iA""><img style=""width:200px"" src=""https://images.mapillary.com/ucyr5KF7hlFmLs5qret0iA/thumb-320.jpg""></a><br>Streetwise Score: 13.767830206069116";1;-;47.4439938,9.4182354;47.4439938;9.4182354
7AEv-8KgIfn5K4lBnNhirw;23.414394291994356;"<a target=""_blank"" href=""https://www.mapillary.com/map/im/7AEv-8KgIfn5K4lBnNhirw""><img style=""width:200px"" src=""https://images.mapillary.com/7AEv-8KgIfn5K4lBnNhirw/thumb-320.jpg""></a><br>Streetwise Score: 23.414394291994356";2;0;47.4420504,9.4171999;47.4420504;9.4171999
0S3_2OeqZeYetoE3i4BsnA;27.84457415392468;"<a target=""_blank"" href=""https://www.mapillary.com/map/im/0S3_2OeqZeYetoE3i4BsnA""><img style=""width:200px"" src=""https://images.mapillary.com/0S3_2OeqZeYetoE3i4BsnA/thumb-320.jpg""></a><br>Streetwise Score: 27.84457415392468";2;0;47.4409773,9.4164457;47.4409773;9.4164457
vgSVlGaXuAANbc4rRCWlFg;28.796689401432666;"<a target=""_blank"" href=""https://www.mapillary.com/map/im/vgSVlGaXuAANbc4rRCWlFg""><img style=""width:200px"" src=""https://images.mapillary.com/vgSVlGaXuAANbc4rRCWlFg/thumb-320.jpg""></a><br>Streetwise Score: 28.796689401432666";2;0;47.4390754,9.4088705;47.4390754;9.4088705
4WlTIStmAl00F34RuALfFA;25.720033706357125;"<a target=""_blank"" href=""https://www.mapillary.com/map/im/4WlTIStmAl00F34RuALfFA""><img style=""width:200px"" src=""https://images.mapillary.com/4WlTIStmAl00F34RuALfFA/thumb-320.jpg""></a><br>Streetwise Score: 25.720033706357125";2;0;47.4362588,9.3984546;47.4362588;9.3984546
SrXq3nGVRYwDbiham9zG2w;22.869806442298284;"<a target=""_blank"" href=""https://www.mapillary.com/map/im/SrXq3nGVRYwDbiham9zG2w""><img style=""width:200px"" src=""https://images.mapillary.com/SrXq3nGVRYwDbiham9zG2w/thumb-320.jpg""></a><br>Streetwise Score: 22.869806442298284";2;0;47.4337325,9.39124;47.4337325;9.39124
C_SKg8hsMhUqySwGnD1LMg;26.97193984651975;"<a target=""_blank"" href=""https://www.mapillary.com/map/im/C_SKg8hsMhUqySwGnD1LMg""><img style=""width:200px"" src=""https://images.mapillary.com/C_SKg8hsMhUqySwGnD1LMg/thumb-320.jpg""></a><br>Streetwise Score: 26.97193984651975";2;0;47.4333072,9.3870667;47.4333072;9.3870667
LHBJjjep7kYEEjfewn4jKQ;27.490775313878476;"<a target=""_blank"" href=""https://www.mapillary.com/map/im/LHBJjjep7kYEEjfewn4jKQ""><img style=""width:200px"" src=""https://images.mapillary.com/LHBJjjep7kYEEjfewn4jKQ/thumb-320.jpg""></a><br>Streetwise Score: 27.490775313878476";2;0;47.4331371,9.3859111;47.4331371;9.3859111
OrY6EWTljEeHueq3ypUD_A;5.659482235207515;"<a target=""_blank"" href=""https://www.mapillary.com/map/im/OrY6EWTljEeHueq3ypUD_A""><img style=""width:200px"" src=""https://images.mapillary.com/OrY6EWTljEeHueq3ypUD_A/thumb-320.jpg""></a><br>Streetwise Score: 5.659482235207515";0;wahrgenommene Sicherheit tief;47.4327847,9.3842659;47.4327847;9.3842659
i9xPJPnOu02Kzn4NY_uAjw;16.08580548391484;"<a target=""_blank"" href=""https://www.mapillary.com/map/im/i9xPJPnOu02Kzn4NY_uAjw""><img style=""width:200px"" src=""https://images.mapillary.com/i9xPJPnOu02Kzn4NY_uAjw/thumb-320.jpg""></a><br>Streetwise Score: 16.08580548391484";1;-;47.4326543,9.3830866;47.4326543;9.3830866
1IkjKNJq2OCAoxfT6o6J_g;13.39658682510737;"<a target=""_blank"" href=""https://www.mapillary.com/map/im/1IkjKNJq2OCAoxfT6o6J_g""><img style=""width:200px"" src=""https://images.mapillary.com/1IkjKNJq2OCAoxfT6o6J_g/thumb-320.jpg""></a><br>Streetwise Score: 13.39658682510737";1;-;47.4323961,9.3807504;47.4323961;9.3807504
ypzmcqvtoS1BoZ4G8H4Nxw;7.622683310812388;"<a target=""_blank"" href=""https://www.mapillary.com/map/im/ypzmcqvtoS1BoZ4G8H4Nxw""><img style=""width:200px"" src=""https://images.mapillary.com/ypzmcqvtoS1BoZ4G8H4Nxw/thumb-320.jpg""></a><br>Streetwise Score: 7.622683310812388";0;wahrgenommene Sicherheit tief;47.4323295,9.3801478;47.4323295;9.3801478
HKFq9EO0tk6kQPYmUlrjBQ;14.569238297008473;"<a target=""_blank"" href=""https://www.mapillary.com/map/im/HKFq9EO0tk6kQPYmUlrjBQ""><img style=""width:200px"" src=""https://images.mapillary.com/HKFq9EO0tk6kQPYmUlrjBQ/thumb-320.jpg""></a><br>Streetwise Score: 14.569238297008473";1;-;47.432135,9.3783886;47.432135;9.3783886
6S4dH8qFcYvbAPnwYbMcQg;7.492003194423648;"<a target=""_blank"" href=""https://www.mapillary.com/map/im/6S4dH8qFcYvbAPnwYbMcQg""><img style=""width:200px"" src=""https://images.mapillary.com/6S4dH8qFcYvbAPnwYbMcQg/thumb-320.jpg""></a><br>Streetwise Score: 7.492003194423648";0;wahrgenommene Sicherheit tief;47.431172,9.3696767;47.431172;9.3696767
CCP4gUPrdduHoparbTU6AA;18.904076969736575;"<a target=""_blank"" href=""https://www.mapillary.com/map/im/CCP4gUPrdduHoparbTU6AA""><img style=""width:200px"" src=""https://images.mapillary.com/CCP4gUPrdduHoparbTU6AA/thumb-320.jpg""></a><br>Streetwise Score: 18.904076969736575";1;-;47.4230411,9.36782;47.4230411;9.36782
ILLR70LqwthK0CJKUSBXJg;5.909102067287995;"<a target=""_blank"" href=""https://www.mapillary.com/map/im/ILLR70LqwthK0CJKUSBXJg""><img style=""width:200px"" src=""https://images.mapillary.com/ILLR70LqwthK0CJKUSBXJg/thumb-320.jpg""></a><br>Streetwise Score: 5.909102067287995";0;wahrgenommene Sicherheit tief;47.4224509,9.367769;47.4224509;9.367769
1EgYMIjP2TiOzvu4PIJ4TA;31.834986905594377;"<a target=""_blank"" href=""https://www.mapillary.com/map/im/1EgYMIjP2TiOzvu4PIJ4TA""><img style=""width:200px"" src=""https://images.mapillary.com/1EgYMIjP2TiOzvu4PIJ4TA/thumb-320.jpg""></a><br>Streetwise Score: 31.834986905594377";3;+;47.4318197,9.3818419;47.4318197;9.3818419
DtBLtQU0D08TpXa_16VtCw;27.090689914753625;"<a target=""_blank"" href=""https://www.mapillary.com/map/im/DtBLtQU0D08TpXa_16VtCw""><img style=""width:200px"" src=""https://images.mapillary.com/DtBLtQU0D08TpXa_16VtCw/thumb-320.jpg""></a><br>Streetwise Score: 27.090689914753625";2;0;47.4318197,9.3818419;47.4318197;9.3818419
EVqJJI8go_co-V3eU4Cy4Q;36.32802089413638;"<a target=""_blank"" href=""https://www.mapillary.com/map/im/EVqJJI8go_co-V3eU4Cy4Q""><img style=""width:200px"" src=""https://images.mapillary.com/EVqJJI8go_co-V3eU4Cy4Q/thumb-320.jpg""></a><br>Streetwise Score: 36.32802089413638";3;+;47.4318217,9.3818426;47.4318217;9.3818426
bLWqivyOLsGqn00ohC863g;44.59687257400641;"<a target=""_blank"" href=""https://www.mapillary.com/map/im/bLWqivyOLsGqn00ohC863g""><img style=""width:200px"" src=""https://images.mapillary.com/bLWqivyOLsGqn00ohC863g/thumb-320.jpg""></a><br>Streetwise Score: 44.59687257400641";4;wahrgenommene Sicherheit hoch;47.4318124,9.3818249;47.4318124;9.3818249
XdL7ijSAoELWONLu7tE9Og;47.308018052972095;"<a target=""_blank"" href=""https://www.mapillary.com/map/im/XdL7ijSAoELWONLu7tE9Og""><img style=""width:200px"" src=""https://images.mapillary.com/XdL7ijSAoELWONLu7tE9Og/thumb-320.jpg""></a><br>Streetwise Score: 47.308018052972095";4;wahrgenommene Sicherheit hoch;47.4269017,9.3815348;47.4269017;9.3815348
hc8DLp9msiICOulxwRr_bg;24.67494602113105;"<a target=""_blank"" href=""https://www.mapillary.com/map/im/hc8DLp9msiICOulxwRr_bg""><img style=""width:200px"" src=""https://images.mapillary.com/hc8DLp9msiICOulxwRr_bg/thumb-320.jpg""></a><br>Streetwise Score: 24.67494602113105";2;0;47.4252699,9.3817758;47.4252699;9.3817758
442FRunWyI4I4hytXKaRYg;40.74741200443556;"<a target=""_blank"" href=""https://www.mapillary.com/map/im/442FRunWyI4I4hytXKaRYg""><img style=""width:200px"" src=""https://images.mapillary.com/442FRunWyI4I4hytXKaRYg/thumb-320.jpg""></a><br>Streetwise Score: 40.74741200443556";4;wahrgenommene Sicherheit hoch;47.4252535,9.381745;47.4252535;9.381745
oq-WcSE1dAa9RlVxOwGmiw;39.160974387527375;"<a target=""_blank"" href=""https://www.mapillary.com/map/im/oq-WcSE1dAa9RlVxOwGmiw""><img style=""width:200px"" src=""https://images.mapillary.com/oq-WcSE1dAa9RlVxOwGmiw/thumb-320.jpg""></a><br>Streetwise Score: 39.160974387527375";0;wahrgenommene Sicherheit tief;47.4269986,9.3856107;47.4269986;9.3856107
Eaev7Pp_Ejwu2h_sqpUHdg;46.18878889481615;"<a target=""_blank"" href=""https://www.mapillary.com/map/im/Eaev7Pp_Ejwu2h_sqpUHdg""><img style=""width:200px"" src=""https://images.mapillary.com/Eaev7Pp_Ejwu2h_sqpUHdg/thumb-320.jpg""></a><br>Streetwise Score: 46.18878889481615";4;wahrgenommene Sicherheit hoch;47.4270436,9.3853503;47.4270436;9.3853503
dbNbZoyPDeVETrO4QcNdAQ;44.311601679485925;"<a target=""_blank"" href=""https://www.mapillary.com/map/im/dbNbZoyPDeVETrO4QcNdAQ""><img style=""width:200px"" src=""https://images.mapillary.com/dbNbZoyPDeVETrO4QcNdAQ/thumb-320.jpg""></a><br>Streetwise Score: 44.311601679485925";4;wahrgenommene Sicherheit hoch;47.4270981,9.3852307;47.4270981;9.3852307
SG5Ul2b1n3Scgcl_-dzvSw;47.743937468282176;"<a target=""_blank"" href=""https://www.mapillary.com/map/im/SG5Ul2b1n3Scgcl_-dzvSw""><img style=""width:200px"" src=""https://images.mapillary.com/SG5Ul2b1n3Scgcl_-dzvSw/thumb-320.jpg""></a><br>Streetwise Score: 47.743937468282176";4;wahrgenommene Sicherheit hoch;47.4268656,9.3844744;47.4268656;9.3844744
WSHNJxJbr_OhTH1uU2h6zg;35.43557166675953;"<a target=""_blank"" href=""https://www.mapillary.com/map/im/WSHNJxJbr_OhTH1uU2h6zg""><img style=""width:200px"" src=""https://images.mapillary.com/WSHNJxJbr_OhTH1uU2h6zg/thumb-320.jpg""></a><br>Streetwise Score: 35.43557166675953";3;+;47.4267376,9.3842341;47.4267376;9.3842341
b5hd03Ubm1GHsfLWkvnHlw;37.150418494019796;"<a target=""_blank"" href=""https://www.mapillary.com/map/im/b5hd03Ubm1GHsfLWkvnHlw""><img style=""width:200px"" src=""https://images.mapillary.com/b5hd03Ubm1GHsfLWkvnHlw/thumb-320.jpg""></a><br>Streetwise Score: 37.150418494019796";3;+;47.4267376,9.3842341;47.4267376;9.3842341
qCLQ6y7yT9gn2NbWlgwIlw;31.234279506231044;"<a target=""_blank"" href=""https://www.mapillary.com/map/im/qCLQ6y7yT9gn2NbWlgwIlw""><img style=""width:200px"" src=""https://images.mapillary.com/qCLQ6y7yT9gn2NbWlgwIlw/thumb-320.jpg""></a><br>Streetwise Score: 31.234279506231044";3;+;47.426708,9.3842522;47.426708;9.3842522
zfyIiLQgBSQj5uQQcSNo0Q;39.28885470860728;"<a target=""_blank"" href=""https://www.mapillary.com/map/im/zfyIiLQgBSQj5uQQcSNo0Q""><img style=""width:200px"" src=""https://images.mapillary.com/zfyIiLQgBSQj5uQQcSNo0Q/thumb-320.jpg""></a><br>Streetwise Score: 39.28885470860728";0;wahrgenommene Sicherheit tief;47.4263928,9.383542;47.4263928;9.383542
DjXjRtYqzFr3Vj1mE7WxYA;38.149251894711476;"<a target=""_blank"" href=""https://www.mapillary.com/map/im/DjXjRtYqzFr3Vj1mE7WxYA""><img style=""width:200px"" src=""https://images.mapillary.com/DjXjRtYqzFr3Vj1mE7WxYA/thumb-320.jpg""></a><br>Streetwise Score: 38.149251894711476";3;+;47.426374,9.3833582;47.426374;9.3833582
9Otg9RHkmN97cbDi77WLnw;37.810636206748846;"<a target=""_blank"" href=""https://www.mapillary.com/map/im/9Otg9RHkmN97cbDi77WLnw""><img style=""width:200px"" src=""https://images.mapillary.com/9Otg9RHkmN97cbDi77WLnw/thumb-320.jpg""></a><br>Streetwise Score: 37.810636206748846";3;+;47.426628,9.3828178;47.426628;9.3828178
4-qBEsZqcOESMAoH64gH9Q;31.46519879894112;"<a target=""_blank"" href=""https://www.mapillary.com/map/im/4-qBEsZqcOESMAoH64gH9Q""><img style=""width:200px"" src=""https://images.mapillary.com/4-qBEsZqcOESMAoH64gH9Q/thumb-320.jpg""></a><br>Streetwise Score: 31.46519879894112";3;+;47.4265305,9.3827361;47.4265305;9.3827361
PpPQqCJEyJOsQHIaiAe_1w;38.05343182963651;"<a target=""_blank"" href=""https://www.mapillary.com/map/im/PpPQqCJEyJOsQHIaiAe_1w""><img style=""width:200px"" src=""https://images.mapillary.com/PpPQqCJEyJOsQHIaiAe_1w/thumb-320.jpg""></a><br>Streetwise Score: 38.05343182963651";3;+;47.426518,9.3827246;47.426518;9.3827246
Z_HfnXECeQtQ0hAq84GxYQ;44.403810012103165;"<a target=""_blank"" href=""https://www.mapillary.com/map/im/Z_HfnXECeQtQ0hAq84GxYQ""><img style=""width:200px"" src=""https://images.mapillary.com/Z_HfnXECeQtQ0hAq84GxYQ/thumb-320.jpg""></a><br>Streetwise Score: 44.403810012103165";4;wahrgenommene Sicherheit hoch;47.4262586,9.3825387;47.4262586;9.3825387
W-sTNlQW57rlI7W40Vi-Hg;34.05522449731163;"<a target=""_blank"" href=""https://www.mapillary.com/map/im/W-sTNlQW57rlI7W40Vi-Hg""><img style=""width:200px"" src=""https://images.mapillary.com/W-sTNlQW57rlI7W40Vi-Hg/thumb-320.jpg""></a><br>Streetwise Score: 34.05522449731163";3;+;47.426071,9.3822795;47.426071;9.3822795
h1img6FathodzzSvdaRLSA;39.43080616553424;"<a target=""_blank"" href=""https://www.mapillary.com/map/im/h1img6FathodzzSvdaRLSA""><img style=""width:200px"" src=""https://images.mapillary.com/h1img6FathodzzSvdaRLSA/thumb-320.jpg""></a><br>Streetwise Score: 39.43080616553424";0;wahrgenommene Sicherheit tief;47.4260414,9.3822259;47.4260414;9.3822259
jLeC_aNmvqefG4EOvDTtVg;20.868044475328123;"<a target=""_blank"" href=""https://www.mapillary.com/map/im/jLeC_aNmvqefG4EOvDTtVg""><img style=""width:200px"" src=""https://images.mapillary.com/jLeC_aNmvqefG4EOvDTtVg/thumb-320.jpg""></a><br>Streetwise Score: 20.868044475328123";2;0;47.4259733,9.3820483;47.4259733;9.3820483
Acae1I3Cc40b3JaTcbfsrw;34.1157194966552;"<a target=""_blank"" href=""https://www.mapillary.com/map/im/Acae1I3Cc40b3JaTcbfsrw""><img style=""width:200px"" src=""https://images.mapillary.com/Acae1I3Cc40b3JaTcbfsrw/thumb-320.jpg""></a><br>Streetwise Score: 34.1157194966552";3;+;47.4259695,9.3820297;47.4259695;9.3820297
qo48uJ6jM5V1bLO4lN3I6g;35.280633224871906;"<a target=""_blank"" href=""https://www.mapillary.com/map/im/qo48uJ6jM5V1bLO4lN3I6g""><img style=""width:200px"" src=""https://images.mapillary.com/qo48uJ6jM5V1bLO4lN3I6g/thumb-320.jpg""></a><br>Streetwise Score: 35.280633224871906";3;+;47.4264331,9.3901018;47.4264331;9.3901018
rHU-lOh-3a4ppvKt0F46Ow;26.773925866568483;"<a target=""_blank"" href=""https://www.mapillary.com/map/im/rHU-lOh-3a4ppvKt0F46Ow""><img style=""width:200px"" src=""https://images.mapillary.com/rHU-lOh-3a4ppvKt0F46Ow/thumb-320.jpg""></a><br>Streetwise Score: 26.773925866568483";2;0;47.4265596,9.3895064;47.4265596;9.3895064
Eo4nc0fbx0XMjJSUyOVdOQ;40.42501261190651;"<a target=""_blank"" href=""https://www.mapillary.com/map/im/Eo4nc0fbx0XMjJSUyOVdOQ""><img style=""width:200px"" src=""https://images.mapillary.com/Eo4nc0fbx0XMjJSUyOVdOQ/thumb-320.jpg""></a><br>Streetwise Score: 40.42501261190651";4;wahrgenommene Sicherheit hoch;47.4265667,9.3894872;47.4265667;9.3894872
nXcdpoyqLHGhih259H-Z5Q;38.468855320183266;"<a target=""_blank"" href=""https://www.mapillary.com/map/im/nXcdpoyqLHGhih259H-Z5Q""><img style=""width:200px"" src=""https://images.mapillary.com/nXcdpoyqLHGhih259H-Z5Q/thumb-320.jpg""></a><br>Streetwise Score: 38.468855320183266";3;+;47.4265778,9.3893743;47.4265778;9.3893743
14ctcqYOJo8bvmXA1sdTwg;39.419030389489606;"<a target=""_blank"" href=""https://www.mapillary.com/map/im/14ctcqYOJo8bvmXA1sdTwg""><img style=""width:200px"" src=""https://images.mapillary.com/14ctcqYOJo8bvmXA1sdTwg/thumb-320.jpg""></a><br>Streetwise Score: 39.419030389489606";0;wahrgenommene Sicherheit tief;47.4265981,9.3887968;47.4265981;9.3887968
3pzvj67WDjGUzhjmnT4CDw;34.75955565569623;"<a target=""_blank"" href=""https://www.mapillary.com/map/im/3pzvj67WDjGUzhjmnT4CDw""><img style=""width:200px"" src=""https://images.mapillary.com/3pzvj67WDjGUzhjmnT4CDw/thumb-320.jpg""></a><br>Streetwise Score: 34.75955565569623";3;+;47.4265702,9.3884092;47.4265702;9.3884092
FVshFg3ZcGtBX2uPVd6Wng;43.71194391354766;"<a target=""_blank"" href=""https://www.mapillary.com/map/im/FVshFg3ZcGtBX2uPVd6Wng""><img style=""width:200px"" src=""https://images.mapillary.com/FVshFg3ZcGtBX2uPVd6Wng/thumb-320.jpg""></a><br>Streetwise Score: 43.71194391354766";4;wahrgenommene Sicherheit hoch;47.4264924,9.3876183;47.4264924;9.3876183
jHxoz7dCItFJ59Xe0oM0jg;37.62871057192792;"<a target=""_blank"" href=""https://www.mapillary.com/map/im/jHxoz7dCItFJ59Xe0oM0jg""><img style=""width:200px"" src=""https://images.mapillary.com/jHxoz7dCItFJ59Xe0oM0jg/thumb-320.jpg""></a><br>Streetwise Score: 37.62871057192792";3;+;47.4264682,9.3871457;47.4264682;9.3871457
lcQV4dyBSMNDPWFBKaugig;36.13017264788409;"<a target=""_blank"" href=""https://www.mapillary.com/map/im/lcQV4dyBSMNDPWFBKaugig""><img style=""width:200px"" src=""https://images.mapillary.com/lcQV4dyBSMNDPWFBKaugig/thumb-320.jpg""></a><br>Streetwise Score: 36.13017264788409";3;+;47.4264647,9.3871295;47.4264647;9.3871295
oC-aFeaDW8GvPv_6HqgZUQ;40.20945830954895;"<a target=""_blank"" href=""https://www.mapillary.com/map/im/oC-aFeaDW8GvPv_6HqgZUQ""><img style=""width:200px"" src=""https://images.mapillary.com/oC-aFeaDW8GvPv_6HqgZUQ/thumb-320.jpg""></a><br>Streetwise Score: 40.20945830954895";4;wahrgenommene Sicherheit hoch;47.4264575,9.3871149;47.4264575;9.3871149
GGXuU4DAF-UVHqgajZstzg;31.012463042437066;"<a target=""_blank"" href=""https://www.mapillary.com/map/im/GGXuU4DAF-UVHqgajZstzg""><img style=""width:200px"" src=""https://images.mapillary.com/GGXuU4DAF-UVHqgajZstzg/thumb-320.jpg""></a><br>Streetwise Score: 31.012463042437066";3;+;47.4264506,9.3871003;47.4264506;9.3871003
Too-miOcY8N_aj48xifW2Q;43.70654381214392;"<a target=""_blank"" href=""https://www.mapillary.com/map/im/Too-miOcY8N_aj48xifW2Q""><img style=""width:200px"" src=""https://images.mapillary.com/Too-miOcY8N_aj48xifW2Q/thumb-320.jpg""></a><br>Streetwise Score: 43.70654381214392";4;wahrgenommene Sicherheit hoch;47.4264234,9.3869889;47.4264234;9.3869889
HD0LhbAk9_CPcho3jZwrCA;26.154841108972;"<a target=""_blank"" href=""https://www.mapillary.com/map/im/HD0LhbAk9_CPcho3jZwrCA""><img style=""width:200px"" src=""https://images.mapillary.com/HD0LhbAk9_CPcho3jZwrCA/thumb-320.jpg""></a><br>Streetwise Score: 26.154841108972";2;0;47.4264181,9.3869684;47.4264181;9.3869684
HXjRzTrwd2QQJseGKon10g;39.62171870946913;"<a target=""_blank"" href=""https://www.mapillary.com/map/im/HXjRzTrwd2QQJseGKon10g""><img style=""width:200px"" src=""https://images.mapillary.com/HXjRzTrwd2QQJseGKon10g/thumb-320.jpg""></a><br>Streetwise Score: 39.62171870946913";0;wahrgenommene Sicherheit tief;47.4261981,9.3915546;47.4261981;9.3915546
2BxfaU0MivFY8r9OrbWNXQ;39.414985327686686;"<a target=""_blank"" href=""https://www.mapillary.com/map/im/2BxfaU0MivFY8r9OrbWNXQ""><img style=""width:200px"" src=""https://images.mapillary.com/2BxfaU0MivFY8r9OrbWNXQ/thumb-320.jpg""></a><br>Streetwise Score: 39.414985327686686";0;wahrgenommene Sicherheit tief;47.4262016,9.3914947;47.4262016;9.3914947
TSCFALmF0UIGLAPpW0sAYQ;43.555863684585496;"<a target=""_blank"" href=""https://www.mapillary.com/map/im/TSCFALmF0UIGLAPpW0sAYQ""><img style=""width:200px"" src=""https://images.mapillary.com/TSCFALmF0UIGLAPpW0sAYQ/thumb-320.jpg""></a><br>Streetwise Score: 43.555863684585496";4;wahrgenommene Sicherheit hoch;47.4262412,9.3912547;47.4262412;9.3912547
AlWUB-ULGoPdVmPaD8ef9g;24.009837510804033;"<a target=""_blank"" href=""https://www.mapillary.com/map/im/AlWUB-ULGoPdVmPaD8ef9g""><img style=""width:200px"" src=""https://images.mapillary.com/AlWUB-ULGoPdVmPaD8ef9g/thumb-320.jpg""></a><br>Streetwise Score: 24.009837510804033";2;0;47.4276864,9.359127;47.4276864;9.359127
n_WE5ieVfmN0J1t9l54QOQ;10.516117143753204;"<a target=""_blank"" href=""https://www.mapillary.com/map/im/n_WE5ieVfmN0J1t9l54QOQ""><img style=""width:200px"" src=""https://images.mapillary.com/n_WE5ieVfmN0J1t9l54QOQ/thumb-320.jpg""></a><br>Streetwise Score: 10.516117143753204";1;-;47.4265363,9.3567358;47.4265363;9.3567358
7zVgnxvr-E6J-crQsh4Gfg;12.440341278884794;"<a target=""_blank"" href=""https://www.mapillary.com/map/im/7zVgnxvr-E6J-crQsh4Gfg""><img style=""width:200px"" src=""https://images.mapillary.com/7zVgnxvr-E6J-crQsh4Gfg/thumb-320.jpg""></a><br>Streetwise Score: 12.440341278884794";1;-;47.4219288,9.3421648;47.4219288;9.3421648
qVUwj0RK5-QUaS5GDuD_6Q;17.40475927338682;"<a target=""_blank"" href=""https://www.mapillary.com/map/im/qVUwj0RK5-QUaS5GDuD_6Q""><img style=""width:200px"" src=""https://images.mapillary.com/qVUwj0RK5-QUaS5GDuD_6Q/thumb-320.jpg""></a><br>Streetwise Score: 17.40475927338682";1;-;47.421653,9.3407393;47.421653;9.3407393
0gET6YKeckvuHmwrkAj2ZA;21.623143857733904;"<a target=""_blank"" href=""https://www.mapillary.com/map/im/0gET6YKeckvuHmwrkAj2ZA""><img style=""width:200px"" src=""https://images.mapillary.com/0gET6YKeckvuHmwrkAj2ZA/thumb-320.jpg""></a><br>Streetwise Score: 21.623143857733904";2;0;47.4198403,9.3325158;47.4198403;9.3325158
LMf_Fg6kc5C0CIcqhy8Jxw;20.552976626903096;"<a target=""_blank"" href=""https://www.mapillary.com/map/im/LMf_Fg6kc5C0CIcqhy8Jxw""><img style=""width:200px"" src=""https://images.mapillary.com/LMf_Fg6kc5C0CIcqhy8Jxw/thumb-320.jpg""></a><br>Streetwise Score: 20.552976626903096";2;0;47.4179618,9.3273886;47.4179618;9.3273886
lr1NAX80Gn1FzeYGG45xVA;29.09982194673979;"<a target=""_blank"" href=""https://www.mapillary.com/map/im/lr1NAX80Gn1FzeYGG45xVA""><img style=""width:200px"" src=""https://images.mapillary.com/lr1NAX80Gn1FzeYGG45xVA/thumb-320.jpg""></a><br>Streetwise Score: 29.09982194673979";3;+;47.416802,9.3217663;47.416802;9.3217663
fYSa9xMv0CBtd_Pc0UM3hw;22.358280078722753;"<a target=""_blank"" href=""https://www.mapillary.com/map/im/fYSa9xMv0CBtd_Pc0UM3hw""><img style=""width:200px"" src=""https://images.mapillary.com/fYSa9xMv0CBtd_Pc0UM3hw/thumb-320.jpg""></a><br>Streetwise Score: 22.358280078722753";2;0;47.4137406,9.3143171;47.4137406;9.3143171
qAgLJU09u0ZufPA20DwjVw;11.685129214964258;"<a target=""_blank"" href=""https://www.mapillary.com/map/im/qAgLJU09u0ZufPA20DwjVw""><img style=""width:200px"" src=""https://images.mapillary.com/qAgLJU09u0ZufPA20DwjVw/thumb-320.jpg""></a><br>Streetwise Score: 11.685129214964258";1;-;47.4117231,9.3110755;47.4117231;9.3110755
SWpaqcw5uhZRJrzyzYrvnw;21.78721017876569;"<a target=""_blank"" href=""https://www.mapillary.com/map/im/SWpaqcw5uhZRJrzyzYrvnw""><img style=""width:200px"" src=""https://images.mapillary.com/SWpaqcw5uhZRJrzyzYrvnw/thumb-320.jpg""></a><br>Streetwise Score: 21.78721017876569";2;0;47.4083733,9.3021433;47.4083733;9.3021433
svPTVKT_94Q_08nPnVHeuA;17.187487920071142;"<a target=""_blank"" href=""https://www.mapillary.com/map/im/svPTVKT_94Q_08nPnVHeuA""><img style=""width:200px"" src=""https://images.mapillary.com/svPTVKT_94Q_08nPnVHeuA/thumb-320.jpg""></a><br>Streetwise Score: 17.187487920071142";1;-;47.4079988,9.2977816;47.4079988;9.2977816
1tTJtWaL-mQheFWhVv15Zg;21.29782704654714;"<a target=""_blank"" href=""https://www.mapillary.com/map/im/1tTJtWaL-mQheFWhVv15Zg""><img style=""width:200px"" src=""https://images.mapillary.com/1tTJtWaL-mQheFWhVv15Zg/thumb-320.jpg""></a><br>Streetwise Score: 21.29782704654714";2;0;47.435568,9.3969433;47.435568;9.3969433
S4quwYFHjpz-jA4ttmfoAw;24.88071281804399;"<a target=""_blank"" href=""https://www.mapillary.com/map/im/S4quwYFHjpz-jA4ttmfoAw""><img style=""width:200px"" src=""https://images.mapillary.com/S4quwYFHjpz-jA4ttmfoAw/thumb-320.jpg""></a><br>Streetwise Score: 24.88071281804399";2;0;47.4338255,9.3918675;47.4338255;9.3918675
XkP7L9peiXehhrjHtLM2XQ;11.083369207929746;"<a target=""_blank"" href=""https://www.mapillary.com/map/im/XkP7L9peiXehhrjHtLM2XQ""><img style=""width:200px"" src=""https://images.mapillary.com/XkP7L9peiXehhrjHtLM2XQ/thumb-320.jpg""></a><br>Streetwise Score: 11.083369207929746";1;-;47.4327798,9.3845696;47.4327798;9.3845696
QnRA0-89xvNA1gFSsJ4iZw;19.80077188555762;"<a target=""_blank"" href=""https://www.mapillary.com/map/im/QnRA0-89xvNA1gFSsJ4iZw""><img style=""width:200px"" src=""https://images.mapillary.com/QnRA0-89xvNA1gFSsJ4iZw/thumb-320.jpg""></a><br>Streetwise Score: 19.80077188555762";2;0;47.4227,9.3683;47.4227;9.3683
EyEKh7inSGlP7_IFJL4vkw;23.214343699243088;"<a target=""_blank"" href=""https://www.mapillary.com/map/im/EyEKh7inSGlP7_IFJL4vkw""><img style=""width:200px"" src=""https://images.mapillary.com/EyEKh7inSGlP7_IFJL4vkw/thumb-320.jpg""></a><br>Streetwise Score: 23.214343699243088";2;0;47.4236111,9.3704111;47.4236111;9.3704111
A9N-zSIQYE_flWh5Jvr4Dg;7.138696745934063;"<a target=""_blank"" href=""https://www.mapillary.com/map/im/A9N-zSIQYE_flWh5Jvr4Dg""><img style=""width:200px"" src=""https://images.mapillary.com/A9N-zSIQYE_flWh5Jvr4Dg/thumb-320.jpg""></a><br>Streetwise Score: 7.138696745934063";0;wahrgenommene Sicherheit tief;47.4232,9.3699;47.4232;9.3699
aCAxcKHVNUJeX5sD3uCemg;32.13210108144762;"<a target=""_blank"" href=""https://www.mapillary.com/map/im/aCAxcKHVNUJeX5sD3uCemg""><img style=""width:200px"" src=""https://images.mapillary.com/aCAxcKHVNUJeX5sD3uCemg/thumb-320.jpg""></a><br>Streetwise Score: 32.13210108144762";3;+;47.4234,9.3704;47.4234;9.3704
2IvgajTxbOaMmuWSwEaSkw;25.467970942221974;"<a target=""_blank"" href=""https://www.mapillary.com/map/im/2IvgajTxbOaMmuWSwEaSkw""><img style=""width:200px"" src=""https://images.mapillary.com/2IvgajTxbOaMmuWSwEaSkw/thumb-320.jpg""></a><br>Streetwise Score: 25.467970942221974";2;0;47.428272,9.360187;47.428272;9.360187
jT-2RyJ7OgGRzcILqH7izQ;17.682369860496514;"<a target=""_blank"" href=""https://www.mapillary.com/map/im/jT-2RyJ7OgGRzcILqH7izQ""><img style=""width:200px"" src=""https://images.mapillary.com/jT-2RyJ7OgGRzcILqH7izQ/thumb-320.jpg""></a><br>Streetwise Score: 17.682369860496514";1;-;47.436118,9.398289;47.436118;9.398289
ZZ_Pa19Ce2g5K_UFx4NiMg;32.375718967549616;"<a target=""_blank"" href=""https://www.mapillary.com/map/im/ZZ_Pa19Ce2g5K_UFx4NiMg""><img style=""width:200px"" src=""https://images.mapillary.com/ZZ_Pa19Ce2g5K_UFx4NiMg/thumb-320.jpg""></a><br>Streetwise Score: 32.375718967549616";3;+;47.435554,9.396662;47.435554;9.396662
x-chNi8XDLQc-iEX3zYr2w;8.532323183835482;"<a target=""_blank"" href=""https://www.mapillary.com/map/im/x-chNi8XDLQc-iEX3zYr2w""><img style=""width:200px"" src=""https://images.mapillary.com/x-chNi8XDLQc-iEX3zYr2w/thumb-320.jpg""></a><br>Streetwise Score: 8.532323183835482";0;wahrgenommene Sicherheit tief;47.43463,9.394313;47.43463;9.394313
MxQFnkFPOreSAGNUOVXSIA;12.47276568373154;"<a target=""_blank"" href=""https://www.mapillary.com/map/im/MxQFnkFPOreSAGNUOVXSIA""><img style=""width:200px"" src=""https://images.mapillary.com/MxQFnkFPOreSAGNUOVXSIA/thumb-320.jpg""></a><br>Streetwise Score: 12.47276568373154";1;-;47.434085,9.392702;47.434085;9.392702
k9GGtYlA8-FZi9c4TuSriw;21.17725519215788;"<a target=""_blank"" href=""https://www.mapillary.com/map/im/k9GGtYlA8-FZi9c4TuSriw""><img style=""width:200px"" src=""https://images.mapillary.com/k9GGtYlA8-FZi9c4TuSriw/thumb-320.jpg""></a><br>Streetwise Score: 21.17725519215788";2;0;47.433395,9.388282;47.433395;9.388282
qOc7mym-VcxeTKf5WG6F0Q;23.264598880687707;"<a target=""_blank"" href=""https://www.mapillary.com/map/im/qOc7mym-VcxeTKf5WG6F0Q""><img style=""width:200px"" src=""https://images.mapillary.com/qOc7mym-VcxeTKf5WG6F0Q/thumb-320.jpg""></a><br>Streetwise Score: 23.264598880687707";2;0;47.433216,9.386536;47.433216;9.386536
hXAgoUvakhfVgveJP1pFMA;35.67650453712682;"<a target=""_blank"" href=""https://www.mapillary.com/map/im/hXAgoUvakhfVgveJP1pFMA""><img style=""width:200px"" src=""https://images.mapillary.com/hXAgoUvakhfVgveJP1pFMA/thumb-320.jpg""></a><br>Streetwise Score: 35.67650453712682";3;+;47.427464,9.377822;47.427464;9.377822
h88LX6CGB45a2tWsY2EbsQ;29.54536897530372;"<a target=""_blank"" href=""https://www.mapillary.com/map/im/h88LX6CGB45a2tWsY2EbsQ""><img style=""width:200px"" src=""https://images.mapillary.com/h88LX6CGB45a2tWsY2EbsQ/thumb-320.jpg""></a><br>Streetwise Score: 29.54536897530372";3;+;47.427388,9.37785;47.427388;9.37785
c__bvevivpwTB5fYrI7tRw;37.93546699099769;"<a target=""_blank"" href=""https://www.mapillary.com/map/im/c__bvevivpwTB5fYrI7tRw""><img style=""width:200px"" src=""https://images.mapillary.com/c__bvevivpwTB5fYrI7tRw/thumb-320.jpg""></a><br>Streetwise Score: 37.93546699099769";3;+;47.426806,9.377895;47.426806;9.377895
RyjLyhn6u0uIcIDUVBm_CQ;40.29164728236566;"<a target=""_blank"" href=""https://www.mapillary.com/map/im/RyjLyhn6u0uIcIDUVBm_CQ""><img style=""width:200px"" src=""https://images.mapillary.com/RyjLyhn6u0uIcIDUVBm_CQ/thumb-320.jpg""></a><br>Streetwise Score: 40.29164728236566";4;wahrgenommene Sicherheit hoch;47.430819,9.380277;47.430819;9.380277
vuplDZM84KcNXKVq57ISTg;36.920429047194766;"<a target=""_blank"" href=""https://www.mapillary.com/map/im/vuplDZM84KcNXKVq57ISTg""><img style=""width:200px"" src=""https://images.mapillary.com/vuplDZM84KcNXKVq57ISTg/thumb-320.jpg""></a><br>Streetwise Score: 36.920429047194766";3;+;47.430161,9.379726;47.430161;9.379726
f8fa18btqYosPaw7tEfATQ;37.29664304549092;"<a target=""_blank"" href=""https://www.mapillary.com/map/im/f8fa18btqYosPaw7tEfATQ""><img style=""width:200px"" src=""https://images.mapillary.com/f8fa18btqYosPaw7tEfATQ/thumb-320.jpg""></a><br>Streetwise Score: 37.29664304549092";3;+;47.430069,9.37951;47.430069;9.37951
QGGXSVOVJdrhEXLD8BqdjA;30.59298316586108;"<a target=""_blank"" href=""https://www.mapillary.com/map/im/QGGXSVOVJdrhEXLD8BqdjA""><img style=""width:200px"" src=""https://images.mapillary.com/QGGXSVOVJdrhEXLD8BqdjA/thumb-320.jpg""></a><br>Streetwise Score: 30.59298316586108";3;+;47.429566,9.378944;47.429566;9.378944
YMXrBbkGASoukk3YzNVJ4Q;32.23026876022363;"<a target=""_blank"" href=""https://www.mapillary.com/map/im/YMXrBbkGASoukk3YzNVJ4Q""><img style=""width:200px"" src=""https://images.mapillary.com/YMXrBbkGASoukk3YzNVJ4Q/thumb-320.jpg""></a><br>Streetwise Score: 32.23026876022363";3;+;47.42939,9.37869;47.42939;9.37869
kWdvnHFmp2X3_BORmUgncg;38.581384620400314;"<a target=""_blank"" href=""https://www.mapillary.com/map/im/kWdvnHFmp2X3_BORmUgncg""><img style=""width:200px"" src=""https://images.mapillary.com/kWdvnHFmp2X3_BORmUgncg/thumb-320.jpg""></a><br>Streetwise Score: 38.581384620400314";3;+;47.429082,9.378364;47.429082;9.378364
qQNkLg8-JF2WxXM8YOiEIw;38.01336628093508;"<a target=""_blank"" href=""https://www.mapillary.com/map/im/qQNkLg8-JF2WxXM8YOiEIw""><img style=""width:200px"" src=""https://images.mapillary.com/qQNkLg8-JF2WxXM8YOiEIw/thumb-320.jpg""></a><br>Streetwise Score: 38.01336628093508";3;+;47.428717,9.377693;47.428717;9.377693
